Organisation Code,Name,Address,Contact Telephone Number,Number of patients registered at the GP practice,Latitude,Longitude,GP Patient Number Quintile
E83003,Oakleigh Road Health Centre,"Oakleigh Road Health Ctr, 280 Oakleigh Road North, Whetstone, London, N20 0DH",020 83613638,5994,51.62433925000001,-0.1590519744409339,3
E83005,Lichfield Grove Surgery,"64 Lichfield Grove, Finchley, London, N3 2JP",020 83463123,12102,51.59956346234251,-0.1932449199136519,5
E83006,Greenfield Medical Centre,"Greenfield Medical Centre, 143-145 Cricklewood Lane, Cricklewood, London, NW2 1HS",020 84505454,18911,51.56102486538271,-0.2057228949947389,5
E83007,Squires Lane Medical Practice,"2 Squires Lane, Finchley, London, N3 2AU",020 83463388,10568,51.60249166317472,-0.1749361749019092,4
E83008,Heathfielde Medical Centre,"Heathfielde Medical Ctr, Lyttleton Road, Finchley, Barnet, London, N2 0EQ",020 84589262,4493,51.58523769560618,-0.1797971332671109,2
E83009,Phgh Doctors,"Temple Fortune Health Ctr, 23 Temple Fortune Lane, Golders Green, London, NW11 7TE",020 82092400,26709,51.58104346002451,-0.1977708386034647,5
E83010,The Speedwell Practice,"The Speedwell Practice, The Hth Ctr,Torrington Pk, North Finchley, London, N12 9SS",020 84457587,8083,51.61712932330187,-0.1749327643632308,3
E83011,The Everglade Medical Practice,"Grahame Park Health Ctr., The Concourse, Grahame Park Estate, Colindale, London, NW9 5XT",020 84328641,6261,51.601577825421636,-0.2442098752903148,3
E83012,The Old Court House Surgery,"The Old Court House, 27 Wood Street, Barnet, Hertfordshire, EN5 4BB",020 84492388,12781,51.65289896199811,-0.2015911080043926,5
E83013,Cornwall House Surgery,"Cornwall House Surgery, Cornwall House, Cornwall Avenue, Finchley,London, N3 1LD",020 83461976,6920,51.60484484601807,-0.1899304711578778,3
E83016,Millway Medical Practice,"Millway Medical Practice, 2 Hartley Avenue, Mill Hill, London, NW7 2HX",020 89590888,7048,51.61556147579094,-0.24400334575297106,3
E83017,Longrove Surgery,"Vale Drive Primary C/Ctr, Barnet, Hertfordshire, EN5 2ED",020 83706660,8065,51.64882395343235,-0.1947673248651128,3
E83018,Watling Medical Centre,"Watling Medical Centre, 108 Watling Ave,Burnt Oak, Edgware, Middlesex, HA8 0NR",020 89061711,11936,51.60329064701824,-0.2620209514799359,5
E83020,St. Georges Medical Centre,"St.Georges Medical Centre, 7 Sunningfields Road, Hendon, London, NW4 4QR",020 82026232,10077,51.59160046810207,-0.2258908829450643,4
E83021,Torrington Park Group Practice,"Torrington Park Hlth Ctr., 16 Torrington Park, North Finchley, London, N12 9SS",020 36675030,4994,51.61712932330187,-0.1749327643632308,2
E83024,St Andrews Medical Practice.,"St Andrews Medical Pract., 50 Oakleigh Road North, Whetstone, London, N20 9EX",020 84450475,8916,51.630138071832626,-0.1723797273601874,4
E83025,Pennine Drive Practice,"8 Pennine Drive, Hendon, London, NW2 1PA",020 84559977,3408,51.568474224124785,-0.2089071055545628,1
E83026,Supreme Medical Centre,"Ground Floor, Supreme House, 300 Regents Park Road, Finchley, London, N3 2JX",020 83463291,18891,51.5994525284017,-0.1953863288055307,5
E83027,The Practice At 188,"188 Golders Green Road, Golders Green, London, NW11 9AY",020 82986498,2722,51.576421648397954,-0.2046692161391831,1
E83028,Parkview Surgery,"36 Cressingham Road, Edgware, Middlesex, HA8 0RW",020 89067980,9705,51.6069730282512,-0.2574756772406593,4
E83030,Penshurst Gardens Surgery,"39 Penshurst Gardens, Edgware, Middlesex, HA8 9TN",020 89583141,10151,51.61612895677053,-0.2728116472488108,4
E83031,The Village Surgery,"113 East Barnet Road, Barnet, Hertfordshire, EN4 8RF",020 84496443,2356,51.648556044140854,-0.1685558173288109,1
E83032,Oak Lodge Medical Centre,"Oak Lodge Medical Centre, 234 Burnt Oak Broadway, Edgware, Middlesex, HA8 0AP",020 89521202,5855,51.603679593188254,-0.2706992477495665,2
E83034,Colney Hatch Lane Surgery,"192 Colney Hatch Lane, Muswell Hill, London, N10 1ET",020 88835555,5586,51.60073065652502,-0.1475547670224563,2
E83035,Wentworth Medical Practice.,"Wentworth Medical Pract., 38 Wentworth Avenue, Finchley Central, London, N3 1YL",020 83461242,6055,51.60774537334018,-0.1879232237226305,3
E83037,Derwent Crescent Medical Centre,"Derwent Crescent Med Ctr, 20 Derwent Crescent, Whetstone, London, N20 0QQ",020 84460171,51863,51.62290848492367,-0.1752850934086994,5
E83038,Jai Medical Centre,"114 Edgwarebury Lane, Edgware, Middlesex, HA8 8NB",03000 337861,6011,51.62204339383072,-0.2775421496035462,3
E83039,Ravenscroft Medical Centre,"Ravenscroft Medical Ctr, 166-168 Golders Green Rd, Golders Green, London, NW11 8BB",020 84552477,7042,51.57517769854452,-0.2025818053021498,3
E83041,Wakemans Hill Surgery,"Wakemans Hill Surgery, 1 Wakemans Hill Avenue, Colindale, London, NW9 0TA",020 82052336,6036,51.58708756098796,-0.2542091775062646,3
E83044,Addington Medical Centre,"Addington Medical Centre, 46 Station Road, New Barnet, Hertfordshire, EN5 1QH",020 84414425,3654,51.64965777348448,-0.176841994300828,1
E83045,Friern Barnet Medical Centre,"15/16 St Johns Villas, Friern Barnet Road, London, N11 3BU",020 83681707,2115,51.61327194920178,-0.15592708328214802,1
E83046,Mulberry Medical Practice,"3 Sefton Avenue, Mill Hill, London, NW7 3QB",020 89591868,7224,51.61486119307309,-0.2600335060144056,3
E83049,Langstone Way Surgery,"28 Langstone Way, Mill Hill, London, NW7 1GR",020 83432401,5412,51.6069814786374,-0.2108147096401214,2
E83050,East Finchley Medical Centre,"East Finchley Med Ctr, 39 Baronsmere Road, East Finchley, London, N2 9QD",020 88831458,5375,51.588121411126394,-0.1628787506165806,2
E83053,Lane End Medical Group,"Lane End Medical Group, 2 Penshurst Gardens, Edgware, Middlesex, HA8 9GJ",020 89584233,2291,51.615286915775,-0.2748657887598469,1
E83600,Adler Js-The Surgery,"682 Finchley Road, Golders Green, London, NW11 7NP",020 84559994,1729,51.575074155006114,-0.1959623991454211,1
E83613,East Barnet Health Centre,"East Barnet Health Centre, 149 East Barnet Road, New Barnet, Hertfordshire, EN4 8QZ",020 84407417,1966,51.6463392560728,-0.1664235810203291,1
E83621,Brunswick Park Medical Practice,"Brunswick Park Health Ctr, Brunswick Park Road, New Southgate, London, N11 1EY",020 83681568,3947,51.6292445669182,-0.1492109378874136,1
E83622,Temple Fortune Medical Group,"Temple Fortune Health Ctr, 23 Temple Fortune Lane, London, NW11 7TE",020 84584431,3605,51.58104346002451,-0.1977708386034647,1
E83637,Colindale Medical Centre Lp,"61 Colindeep Lane, Colindale, London, NW9 6DJ",020 82056798,17253,51.59129882317377,-0.2495724057776714,5
E83638,The Mountfield Surgery,"The Mountfield Surgery, 55 Mountfield Road, Finchley, London, N3 3NR",020 83464271,14095,51.59500137286887,-0.1942200410000751,5
E83639,Rosemary Surgery,"Rosemary Surgery, 2 Rosemary Avenue, Finchley, London, N3 2QN",020 83461997,9228,51.59689631772413,-0.1841534889676363,4
E83649,The Hodford Road Practice,"73 Hodford Road, London, NW11 8NH",020 89055234,4491,51.56903786826474,-0.1993181498202438,2
E83650,Gloucester Road Surgery,"1B Gloucester Road, New Barnet, Hertfordshire, EN5 1RS",020 84497677,7930,51.647272160652456,-0.1830519370238208,3
E83653,The Phoenix Practice,"7 Brampton Grove, Hendon, London, NW4 4AE",020 82029030,7801,51.587311205555075,-0.2235689010551079,3
E83657,The Hillview Surgery,"Hillview Surgery, 114 Finchley Lane, Hendon, London, NW4 1DG",020 82030546,6532,51.58986850493654,-0.2149085119590154,3
E83666,Homeless Action In Barnet,"36B Woodhouse Road, North Finchley, London, N12 0RG",020 84468400,6365,51.61215005550681,-0.1744744374695387,3
E83668,Dr Sp Talpahewa,"Medical Centre, 156 Deans Lane, Edgware, Middlesex, HA8 9NT",020 89063337,3000,51.616115112042465,-0.2603033290242352,1
E84002,Forty Willows Surgery,"Forty Willows Surgery, 46 Forty Lane, Wembley Park, Middlesex, HA9 9HA",020 33763100,6405,51.565796620679684,-0.2714302009516156,3
E84003,Premier Medical Centre,"Wembley Centre For H&C, 116 Chaplin Road, Wembley, Middlesex, HA0 4UZ",020 87956150,19470,51.54971272307694,-0.3067853393354926,5
E84004,The Circle Practice,"The Circle Practice, Belmont Health Centre, 516 Kenton Lane, Harrow, Middlesex, HA3 7LT",020 84271213,2824,51.601113172422714,-0.3206132909914962,1
E84005,Kings Road Surgery,"204 Kings Road, South Harrow, Middlesex, HA2 9JH",020 84221667,6974,51.56760302298505,-0.3764760006814352,3
E84006,The Law Medical Group Practice,"The Law Medical Grp Prac, 9-11 Wrottesley Road, Willesden, London, NW10 5UY",020 38188441,8142,51.533870063176956,-0.23431561451215904,3
E84007,Uxendon Crescent Surgery,"1 Uxendon Crescent, Wembley, Middlesex, HA9 9TW",020 89043883,10713,51.57206281697861,-0.2928089648143144,4
E84008,Simpson House Medical Centre,"Simpson House Medical Ctr, 255/255A Eastcote Lane, South Harrow, Middlesex, HA2 8RS",020 88643466,5344,51.5616571228592,-0.372431810790108,2
E84009,Enderley Road Medical Centre,"Enderley Road Medical Ctr, 41-45 Enderley Road, Harrow Weald, Middlesex, HA3 5HF",020 88633333,4747,51.601872147965146,-0.3404688416032806,2
E84011,St Andrews Medical Centre,"Greenhill Park Med.Ctr., Greenhill Park, Harlesden, London, NW10 9AR",020 84597755,3962,51.53840214515032,-0.2535348569130938,1
E84012,Mapesbury Medical Group,"The Windmill Med.Practice, 65 Shoot-Up-Hill, London, NW2 3PS",020 84527646,5874,51.55149628563144,-0.2094730553929199,2
E84013,Church End Medical Centre,"Church End Medical Centre, 66 Mayo Road, Church End Estate, Willesden, London, NW10 9HP",020 89306262,4064,51.547970253980466,-0.2534031687681847,2
E84014,Bacon Lane Surgery,"Bacon Lane Surgery, 11 Bacon Lane, Edgware, Middlesex, HA8 5AT",020 89528073,13424,51.605077991936035,-0.2759025965434919,5
E84015,Willow Tree Family Doctors,"343B Stag Lane, London, NW9 9AD",020 82046464,6782,51.58933709407008,-0.2652241544300032,3
E84017,Sudbury & Alperton Medical Centre,"267 Ealing Road, Wembley, Middlesex, HA0 1EZ",020 89973486,11594,51.53691614694889,-0.2980463660083989,5
E84018,Streatfield Health Centre,"1 Streatfield Road, Kenton, Harrow, Middlesex, HA3 9BP",0844 4127378,5502,51.593811941409655,-0.3081200731143279,2
E84020,Jai Medical Centre (Brent),"82 Stag Lane, Edgware, Middlesex, HA8 5LP",0300 0337863,7837,51.59816766955307,-0.2707209199669252,3
E84021,The Willesden Medical Centre,"The Medical Centre, 144-150 High Road, Willesden, London, NW10 2PT",020 84595550,10234,51.54753179838683,-0.2338733060253204,4
E84022,Roxbourne Medical Centre,"Roxbourne Medical Centre, 37 Rayners Lane, South Harrow, Middlesex, HA2 0UE",020 84225602,5212,51.56737277304886,-0.3631376010310499,2
E84024,The Pinn Medical Centre,"Pinn Medical Centre, 37 Love Lane, Pinner, Harrow, Middlesex, HA5 3EE",020 88665766,9012,51.59507290144576,-0.3822535012583039,4
E84025,The Lonsdale Medical Centre,"The Lonsdale Medical Ctr., 24 Lonsdale Road, London, NW6 6RR",020 73288331,12461,51.53689727153655,-0.2044801495920845,5
E84028,The Stonebridge Practice,"Hillside Primary Care Ctr, 150 Hilltop Avenue, Harlesden, London, NW10 8RY",020 31887310,4481,51.54247225745874,-0.2636035710141405,2
E84030,Preston Hill Surgery,"Preston Hill Surgery, 121 Preston Hill,Kenton, Harrow, London, HA3 9SN",020 89050894,10916,51.54247225745874,-0.2636035710141405,4
E84031,Brentfield Medical Centre,"Brentfield Medical Centre, 10 Kingfisher Way, Brentfield Road, London, NW10 8TF",020 88302396,5060,51.550587627280215,-0.2602512096976117,2
E84032,Ellis Practice,"Chalkhill Pcc-Welford Ctr, 113 Chalkhill Road, Wembley, Middlesex, HA9 9FX",020 87367198,9113,51.56384129999999,-0.2765068,4
E84033,Chalkhill Family Practice,"Chalkhill Pcc-Welford Ctr, 113 Chalkhill Road, Wembley, Middlesex, HA9 9FX",020 87367033,8937,51.56384129999999,-0.2765068,4
E84036,Gladstone Medical Centre,"Gladstone Medical Centre, 5 Dollis Hill Lane, London, NW2 6JH",020 81029108,13925,51.55873111974064,-0.2461201559884285,5
E84039,Honeypot Medical Centre,"Honeypot Medical Centre, 404 Honeypot Lane, Stanmore, Middlesex, HA7 1JP",020 82041363,5069,51.59698757264288,-0.2945456100392208,2
E84040,The Pinner Road Surgery,"196 Pinner Road, West Harrow, Middlesex, HA1 4JS",020 84270130,14868,51.58279438140462,-0.3528552318791035,5
E84042,Kilburn Park Medical Centre,"Kilburn Park Medical Ctr., 12 Cambridge Gardens, Kilburn, London, NW6 5AY",020 76242414,9459,51.53465088334364,-0.193489053415321,4
E84044,The Northwick Surgery,"The Northwick Surgery, 36 Northwick Park Road, Harrow, Middlesex, HA1 2NU",020 85151300,8316,51.581780448880366,-0.3275757589131572,3
E84048,The Fryent Way Surgery,"22 Fryent Way, Kingsbury, London, NW9 9SB",020 82069910,5261,51.582962522289115,-0.2805647516907754,2
E84049,Brampton Health Centre,"5 Brampton Road, Kingsbury, London, NW9 9BY",020 82046219,7895,51.58609916946236,-0.2773861552256575,3
E84051,Stanley Corner Medical Centre,"The Stanley Corner Med Ct, 1-3 Stanley Avenue, Wembley, Middlesex, HA0 4JF",020 89023887,6265,51.54423454703765,-0.29655896440122,3
E84053,Hatch End Medical Centre,"Hatch End Health Centre, 577 Uxbridge Road, Hatch End,Pinner, Middlesex, HA5 4RD",020 84280272,12038,51.606241599274966,-0.377076573635229,5
E84057,The Stanmore Medical Centre,"The Stanmore Medical Ctre, 85 Crowshott Avenue, Stanmore, Middlesex, HA7 1HS",020 89525043,7447,51.60154003411368,-0.3040207837742592,3
E84058,GP Direct,"GP Direct, 3-7 Welbeck Road, Harrow, Middlesex, HA2 0RQ",020 85159300,6346,51.57528460446906,-0.3585384480094434,3
E84059,The Allendale Road Surgery,"35 Allendale Road, Greenford, Middlesex, UB6 0RA",020 89028146,7191,51.551186099349955,-0.3198273796530602,3
E84061,Elliott Hall Medical Ctr.,"Elliott Hall Medical Ctr., 165/167 Uxbridge Road, Hatch End, Pinner,Middlesex, HA5 4EA",020 84284019,6376,51.608500460184146,-0.3636469699299249,3
E84062,The Shaftesbury Medical Centre,"The Shaftesbury Med Ctre, 39 Shaftesbury Parade, South Harrow, Middlesex, HA2 0AH",020 84235500,5241,51.57179586666667,-0.3540216666666667,2
E84063,Lancelot Medical Centre,"19 Lancelot Road, Wembley, Middlesex, HA0 2AL",020 89030609,9810,51.55290749752932,-0.2994978464198485,4
E84066,Hazeldene Medical Centre,"Hazeldene Medical Centre, 1B Wyld Way, Wembley, Middlesex, HA9 6PW",020 89024792,4024,51.54759193494233,-0.2753939001023769,1
E84067,Church Lane Surgery,"The Church Lane Surgery, 282 Church Lane, Kingsbury, London, NW9 8LU",020 82000077,8780,51.574931172276926,-0.2621648526265318,4
E84068,The Ridgeway Surgery,"The Ridgeway Surgery, 71 Imperial Drive, North Harrow, Middlesex, HA2 7DU",020 84272470,2208,51.581005315004425,-0.3651014508459377,1
E84069,Belmont Health Centre,"Belmont Health Centre, 516 Kenton Lane, Kenton, Harrow, Middlesex, HA3 7LT",020 88636863,4632,51.601113172422714,-0.3206132909914962,2
E84070,Pinner View Medical Centre,"Pinner View Medical Ctr., 33 Pinner View, Harrow, Middlesex, HA1 4QG",020 84271246,7165,51.58586903999589,-0.3502468525046582,3
E84074,Freuchen Medical Centre,"Freuchen Medical Centre, 190 High Street, Harlesden, London, NW10 4ST",020 89655174,4174,51.53453098272281,-0.2429988660280499,2
E84075,Mollison Way Surgery,"45C-46 South Parade, Mollison Way, Edgware, Harrow, Middlesex, HA8 5QL",020 87324387,2297,51.597636614843985,-0.2786389570610084,1
E84076,Oxgate Gardens Surgery,"81 Oxgate Gardens, London, NW2 6EA",020 84327337,4005,51.564480595708964,-0.2277917126722951,1
E84078,Kingsbury Health And Wellbeing,"245 Stag Lane, Kingsbury, London, NW9 0EF",020 82040777,2783,51.59173323358778,-0.2655082258282455,1
E84080,Staverton Surgery,"Staverton Medical Centre, 51 Staverton Road, London, NW2 5HA",020 84591359,20,51.54418234276884,-0.225840339531533,1
E84083,Lanfranc Medical Centre,"Lanfranc Medical Centre, Lanfranc Court, Greenford Road,Harrow, Middlesex, HA1 3QE",020 84221813,11865,51.5615855543414,-0.3327458169671346,5
E84086,Walm Lane Surgery,"Walm Lane Surgery, 114 Walm Lane, Willesden Green, London, NW2 4RT",020 84520366,10587,51.5500454,-0.2196844,4
E84601,Kenton Bridge Medical Centre Dr Golden,"The Kenton Bridge Med Ctr, 155-175 Kenton Road, Kenton, Harrow, Middlesex, HA3 0YX",020 89076989,13064,51.582134750216596,-0.3165066794113948,5
E84617,The Civic Medical Centre,"The Civic Medical Centre, 18-20 Bethecar Road, Harrow, Middlesex, HA1 1SE",020 84279445,9599,51.58715486699644,-0.3374974169141679,4
E84620,Preston Road Surgery,"Preston Road Surgery, 56 Preston Road, Wembley, Middlesex, HA9 8LB",020 89046442,4588,51.56490863104341,-0.2924420913055699,2
E84626,The Sunflower Medical Centre,"116 Chaplin Road, Wembley, Middlesex, HA0 4UZ",020 87957979,10095,51.54971272307694,-0.3067853393354926,4
E84635,The Surgery,"The Surgery, 260-262 Harrow Road, Wembley, Middlesex, HA9 6QL",020 89020055,15874,51.55060216695862,-0.2819870404550941,5
E84637,Hilltop Medical Practice,"Hillside Primary Cc, 150 Hilltop Avenue, Harlesden, London, NW10 8RY",020 31887250,5306,51.54247225745874,-0.2636035710141405,2
E84638,Alperton Medical Centre,"Alperton Medical Centre, 32 Stanley Avenue, Wembley, Middlesex, HA0 4JB",020 89032379,5647,51.542795205879315,-0.2938052219421503,2
E84645,Park Royal Medical Practice,"Health & Well-Being Hub, Ctrl Mddx Hosp,Acton Lane, London, NW10 7NS",020 89611183,4219,51.531579782605895,-0.2675969708923669,2
E84646,The Streatfield Medical Centre,"The Medical Centre, 177 Streatfield Road, Harrow, Middlesex, HA3 9BL",020 82045561,10847,51.59534321504587,-0.3008298703344963,4
E84647,Kenton Clinic,"Kenton Clinic, 533A Kenton Road, Kenton, Harrow, Middlesex, HA3 0UQ",020 82042255,3300,51.58596813129345,-0.2924177304745778,1
E84653,Zain Medical Centre,"Edgware Community Hosp, Burnt Oak Broadway, Edgware, Middlesex, HA8 0AD",020 89523721,7568,51.6066065,-0.2705675011563491,3
E84656,Roundwood Park Medical Centre,"Willesden Ctr Hlth & Care, Robson Avenue, London, NW10 3RY",020 84387070,5235,51.54283567950007,-0.2355260950487558,2
E84658,Aspri Medical Centre,"Aspri Medical Centre, 1 Long Elmes, Harrow Weald, Middlesex, HA3 5LE",020 84279623,11333,51.60447070292612,-0.3430022856878794,4
E84663,Kenton Bridge Medical Centre - Dr Raja,"The Kenton Bridge Med Ctr, 155-175 Kenton Road, Kenton, Middlesex, HA3 0YX",020 89076989,5453,51.582134750216596,-0.3165066794113948,2
E84665,Neasden Medical Centre,"Neasden Medical Centre, 21 Tanfield Avenue, Neasden, London, NW2 7SA",020 82080306,4975,51.55930081658961,-0.2482294994926141,2
E84674,Chichele Road Surgery,"25 Chichele Road, Cricklewood, London, NW2 3AN",020 84524666,2596,51.554828017288344,-0.2162662498221428,1
E84676,Headstone Lane Medical Centre,"The Surgery, 238 Headstone Lane, North Harrow, Middlesex, HA2 6LY",020 84281211,2413,51.59901721200533,-0.3567732727723911,1
E84678,Preston Medical Centre,"Preston Medical Centre, 23 Preston Road, Wembley Park, Middlesex, HA9 8JZ",020 89043263,19253,51.56433511806382,-0.2925789990642256,5
E84680,Headstone Road Surgery,"Headstone Road Surgery, 107 Headstone Road, Harrow, Middlesex, HA1 1PG",020 88638923,9630,51.583768167658604,-0.3409119776459205,4
E84681,Savita Medical Centre,"48 Harrow View, Harrow, Middlesex, HA1 1RQ",020 84277172,7795,51.58654689700885,-0.3428316453964524,3
E84684,The Tudor House Medical Centre,"The Tudor House Med Ctre, 1 Chalkhill Road, Wembley Park, Middlesex, HA9 9DS",020 89043673,12228,51.564763886361476,-0.2647544519530191,5
E84685,Sudbury Surgery,"Sudbury Primary Care Ctr, Vale Farm, Watford Road, Wembley, Middlesex, HA0 3HG",020 31147100,15155,51.55821400734481,-0.3164091218851882,5
E84693,St. Peter'S Medical Centre,"St. Peter'S Medical Ctr., Colbeck Road, West Harrow, Middlesex, HA1 4BS",020 88644868,5982,51.576496585041724,-0.3507016825269183,2
E84699,Kings Edge Medical Centre,"Kings Edge Medical Centre, 132 Stag Lane, Kingsbury, London, NW9 0QP",020 82040151,9472,51.5949829525802,-0.2687917265418128,4
E84701,Pearl Medical Practice,"116 Chaplin Road, Wembley, Middlesex, HA0 4UZ",020 87956180,11814,51.54971272307694,-0.3067853393354926,5
E84702,Willesden Green Surgery,"Willesden Green Surgery, 59 Anson Road, London, NW2 3UY",020 82084141,7840,51.55377324842779,-0.2160911403726151,3
E84704,St. Georges Medical Centre,"St.Georges Medical Centre, Park Hill House, 9 Dollis Hill Lane, London, NW2 6JH",020 84504040,14452,51.55873111974064,-0.2461201559884285,5
E84709,Wembley Park Drive Medical Centre,"21 Wembley Park Drive, Wembley, Middlesex, HA9 8HD",020 89036033,12634,51.560468496620786,-0.2901125850861892,5
E84713,The Enterprise Practice,"Belmont Health Centre, 516 Kenton Lane, Kenton, Middlesex, HA3 7LT",020 33260686,13594,51.601113172422714,-0.3206132909914962,5
E85001,Thornbury Road Centre For Health,"Thornbury Rd Ctr For Hlth, Thornbury Road, Isleworth, Middlesex, TW7 4HQ",020 86301036,5247,51.47443226944922,-0.3454432291036295,2
E85003,North End Medical Centre,"North End Medical Centre, 160 North End Road, West Kensington, London, W14 9PR",020 73857777,8069,51.487801376593076,-0.2040760610204077,3
E85004,Albany Practice,"The Albany Practice, Brentford Health Centre, Boston Manor Road, Brentford, Middlesex, TW8 8DS",020 86303838,15736,51.486759701556615,-0.3100545265524113,5
E85005,"The Surgery, Dr Dasgupta & Partners","The Surgery, 13 Westway, Shepherds Bush, London, W12 0PT",020 87433704,12688,51.514205538119796,-0.2476290834501173,5
E85006,Waterside Medical Centre,"Waterside Medical Centre, Tyler Road, Southall, Middlesex, UB2 4XQ",020 85744454,11496,51.50216418955672,-0.3640053724310589,5
E85007,St. Margarets Practice,"The St.Margarets Practice, 237 St.Margarets Road, Twickenham, Middlesex, TW1 1NE",020 88921986,13861,51.45940272510521,-0.3230559685269895,5
E85008,North Fulham Surgery,"North Fulham Surgery, 82 Lillie Road, Fulham, London, SW6 1TN",020 74712650,5940,51.48641443151762,-0.1992477830746354,2
E85012,Ks Medical Centre,"Ks Medical Centre, 33 Dormers Wells Lane, Southall, Middlesex, UB1 3HY",020 85743986,1,51.51374131036472,-0.3642968398303454,1
E85013,Westseven GP,"Hanwell Health Centre, 20 Church Road, Hanwell, London, W7 1DR",020 85797337,264,51.5092399,-0.3344178,1
E85014,Northfields Surgery,"Northfields Surgery, 61 Northfield Avenue, Ealing, London, W13 9QP",020 85671612,10399,51.505139232485895,-0.3189539218715106,4
E85015,Hounslow Medical Centre,"Hounslow Medical Centre, 134 Bath Road, Hounslow, Middlesex, TW3 3ET",020 86301011,7599,51.470135,-0.378524,3
E85016,Richford Gate Medical Centre,"Richford Gate Med Pract, Richford Gate P.C.C., Richford Street, London, W6 7HY",020 33156655,15687,51.50043643343893,-0.2265743557052903,5
E85018,Dr Sood'S Practice,"Heston Health Centre, 25 Cranford Lane, Heston, Hounslow, Middlesex, TW5 9ER",020 86303410,9264,51.48396697712721,-0.3823860174622512,4
E85019,Crown Street Surgery,"Crown Street Surgery, 2 Lombard Ct,Crown Street, Acton, London, W3 8SA",020 89922010,6969,51.50739071832436,-0.273799686734275,3
E85020,Brook Green Medical Centre,"Brook Green Medical Ctr, Bute Gardens, Hammersmith, London, W6 7EG",020 74713333,8138,51.49516253187306,-0.2209445428186752,3
E85021,Yeading Medical Centre,"Yeading Medical Centre, 18 Hughenden Gardens, Northolt, Middlesex, UB5 6LD",020 88453434,13476,51.533634218524675,-0.3970193966644798,5
E85023,Chepstow Gardens Medical Centre,"150 Lady Margaret Road, Southall, Middlesex, UB1 2RL",020 85742812,13936,51.51762380269074,-0.3751404847695809,5
E85024,Carlton Surgery,"The Surgery, 112 Hounslow Road, Feltham, Middlesex, TW14 0AX",020 88903930,6702,51.45333777158061,-0.4045973513389873,3
E85025,Cassidy Road Medical Centre,"651A Fulham Road, Fulham, London, SW6 5PX",020 73844850,7754,51.4791539277323,-0.1990153190626186,3
E85026,Gordon House Surgery,"Mattock Lane Health Ctr., 78 Mattock Lane, West Ealing, London, W13 9NZ",020 87995699,6560,51.5099294,-0.3152273,3
E85028,Hillcrest Surgery,"Hillcrest Surgery, 337 Uxbridge Road, Acton, London, W3 9RA",020 89930982,6140,51.50827767622365,-0.2790835391571767,3
E85029,"The Medical Centre, Dr Jefferies & Partn","The Medical Centre, 292 Munster Road, Fulham, London, SW6 6BQ",020 73851965,3779,51.48120571099857,-0.2126306129473838,1
E85030,Chiswick Health Practice,"Chiswick Health Centre, Fishers Lane, Chiswick, London, W4 1RX",020 86301600,6597,51.49356188368886,-0.259902101397666,3
E85032,Ashchurch Surgery,"The Ashchurch Surgery, 134 Askew Road, Shepherds Bush, London, W12 9BP",0844 4778673,20466,51.50190033333333,-0.2423954333333333,5
E85033,Hammersmith Surgery,"Hammersmith Surgery, 1 Hammersmith Bridge Road, Hammersmith, London, W6 9DU",020 87413944,11699,51.49096592444664,-0.2270715222516247,5
E85034,Grosvenor House Surgery,"Grosvenor House, 147 The Broadway, West Ealing, London, W13 9BE",020 87992525,7060,51.5095722,-0.3276121,3
E85035,Mount Medical Centre,"Mount Medical Centre, 7 Market Parade, Hampton Rd West,Hanworth, Middlesex, TW13 6AJ",020 88938699,4410,51.44059950910055,-0.3877891714629155,2
E85038,"The Surgery, Dr Mangwana & Partners","Palace Surgery, 510 Fulham Palace Road, Fulham, London, SW6 6JD",020 77366305,7318,51.47628164005228,-0.2158327484854989,3
E85040,West4 GPs,"The Chiswick Health Ctr, Fishers Lane, Chiswick, London, W4 1RX",020 86303518,4611,51.49356188368886,-0.259902101397666,2
E85041,Hanwell Health Centre (Naish),"Hanwell Health Centre, 20 Church Road, Hanwell, London, W7 1DR",020 85675738,9211,51.5092399,-0.3344178,4
E85042,The New Surgery,"The New Surgery, 143A Uxbridge Road, Shepherds Bush, London, W12 9RD",020 87431511,4797,51.5060423,-0.2354806,2
E85045,Twickenham Park Medical Centre,"The Medical Centre, 192 Twickenham Road, Hanworth,Feltham, Middlesex, TW13 6HD",020 84817989,3573,51.436668217030636,-0.3752953566029777,1
E85046,Eastmead Avenue Surgery,"The Surgery, 20 Eastmead Avenue, Greenford, Middlesex, UB6 9RB",020 85781244,3800,51.531443319885035,-0.3627397483515439,1
E85048,"Dr Canisius & Dr Hasan, Parkview Cfh&W","56 Cranston Court, Bloemfontein Road, London, W12 7FG",020 37046055,10890,51.51084517882258,-0.2352203713869086,4
E85049,Belmont Medical Centre,"Belmont Medical Centre, 18/20 Western Road, Southall, Middlesex, UB2 5DU",020 88935515,2094,51.50084832988883,-0.3852030247003637,1
E85050,Greenford Road Med.Ctr.,"Greenford Road Med.Ctr., 591 Greenford Road, Greenford, Middlesex, UB6 8QH",020 85758347,3355,51.53769671894538,-0.3457023552216296,1
E85051,Greenford Avenue Fhp,"Greenford Ave Medical Ctr, 322 Greenford Avenue, Hanwell, London, W7 3AH",020 85781880,2895,51.52173066155942,-0.3402701764743869,1
E85052,Cranford Medical Centre,"Cranford Medical Centre, 24 High Street, Cranford, Hounslow, Middlesex, TW5 9RG",020 85648696,4777,51.48188667729738,-0.4124295701428623,2
E85053,The Medical Centre,"The Medical Centre, 45 Doncaster Drive, Northolt, Middlesex, UB5 4AT",020 88648133,5561,51.55265640473245,-0.3750609193682722,2
E85054,Hillview Surgery,"Hillview Surgery, 179 Bilton Road, Perivale, Greenford, Middlesex, UB6 7HQ",020 89974661,6108,51.54053579702405,-0.3183305736411019,3
E85055,The Bush Doctors,"The Bush Doctors, 16-17 West 12 Shopp Ctr, Shepherds Bush, London, W12 8PP",020 87491882,5192,51.503678,-0.218457,2
E85056,St Davids Practice,"Feltham Centre For Health, 3Rd Floor, The Centre, Feltham, Middlesex, TW13 4GU",020 88937448,4054,51.44636691973444,-0.4110857807791367,2
E85057,Queens Walk Practice,"Queens Walk Practice, 6 Queens Walk, Ealing, London, W5 1TP",020 89973041,3424,51.52480348279133,-0.3129854960931061,1
E85058,Blue Wing Family Doctor Unit,"Family Doctor Unit, Hounslow Health Centre, 92 Bath Road, Hounslow, Middlesex, TW3 3LN",020 86031300,2267,51.468133745540676,-0.3717604902010349,1
E85059,Chestnut Practice,"Hounslow Health Centre, 92 Bath Road, Hounslow, Middlesex, TW3 3LN",020 86301400,4796,51.468133745540676,-0.3717604902010349,2
E85060,Kingfisher Practice,"Maswell Park Health Ctr., Hounslow Avenue, Hounslow, Middlesex, TW3 2DY",020 86303482,3879,51.4611248792223,-0.3596143770475148,1
E85061,Welcome Practice,"70A Norwood Road, Southall, Middlesex, UB2 4EY",020 85741822,2077,51.49866990022139,-0.3798197527008508,1
E85062,Firstcare Practice,"Blenheim Centre, Prince Regent Road, Hounslow, Middlesex, TW3 1NL",020 86301111,2460,51.4712141,-0.3610629,1
E85064,West End Surgery,"West End Surgery, Edward Road, Northolt, Middlesex, UB5 6QN",020 88456363,4278,51.53427439477787,-0.3978043307598382,2
E85066,The Bedford Park Surgery,"The Bedford Park Surgery, 55 South Parade, Bedford Park, Chiswick, London, W4 5LH",020 89940298,4554,51.49598045778527,-0.2623023023621859,2
E85069,Oldfield Family Practice,"Oldfield Family Practice, 285 Greenford Road, Greenford, Middlesex, UB6 8RA",020 85781914,6975,51.53043459591279,-0.3510692567219993,3
E85071,Clifford House Medical Centre,"12 Hanworth Road, Feltham, Middlesex, TW13 5AD",020 88902208,3746,51.44732322793437,-0.4066777829040729,1
E85074,Brook Green Surgery,"Milson Road Health Centre, 1-13 Milson Road, Hammersmith, London, W14 0LJ",020 76037563,3519,51.49465062605981,-0.2168449963551404,1
E85075,Chiswick Family Practice,"89 Southfield Road, Chiswick, London, W4 1BB",020 89958948,1652,51.502458031393864,-0.2600819675441124,1
E85077,Shepherds Bush Medical Centre,"336 Uxbridge Road, Shepherds Bush, London, W12 7LS",020 87435153,5956,51.50661369121724,-0.2330927136787798,2
E85083,Dr Sivanesan & Partner,"Woodbridge Medical Centre, Jubilee Gardens, Southall, Middlesex, UB1 2TJ",020 85742794,6367,51.5210961975541,-0.3687611787044037,3
E85088,Elmbank Surgery,"438 Greenford Avenue, Hanwell, London, W7 3DD",020 85781430,13825,51.525549123693686,-0.3419477029454467,5
E85090,Hammond Road Surgery,"95 Hammond Road, Southall, Middlesex, UB2 4EH",020 85745057,5131,51.499656178424615,-0.3796118914578698,2
E85091,Brunswick Road Med.Ctr.,"Brunswick Road Med.Ctr., 75 Brunswick Road, Ealing, London, W5 1AQ",020 88105545,12857,51.52963394475661,-0.302498852614929,5
E85096,Medical Centre,"3-5 Cecil Road, Hounslow, Middlesex, TW3 1NU",020 85745943,7959,51.507298012440785,-0.3801477629918929,3
E85098,Islip Manor Medical Centre,"Islip Manor Medical Ctr, 45 Eastcote Lane, Northolt, Middlesex, UB5 5RG",020 88454911,4794,51.547313672280815,-0.3730157903793369,2
E85099,The Avenue Surgery,"102 The Avenue, West Ealing, London, W13 8LA",020 89972525,8418,51.5183888357023,-0.3190311011322091,4
E85103,Lady Margaret Road Medical Centre,"57 Lady Margaret Road, Southall, Middlesex, UB1 2PH",020 85745186,9718,51.51322655227325,-0.3757869384328164,4
E85107,The Mill Hill Surgery,"The Mill Hill Surgery, 111 Avenue Road, Acton, London, W3 8QH",020 89929955,7756,51.50517011479444,-0.2744455646566878,3
E85108,Mandeville Medical Centre,"Mandeville Medical Centre, 3 Mandeville Road, Northolt, Middlesex, UB5 5HB",020 88453275,3630,51.54484841695142,-0.3722672658339592,1
E85109,The Acton Health Centre,"The Acton Health Centre, 35/61 Church Road, Acton, London, W3 8QE",020 89926768,7346,51.506213617067395,-0.270198546519399,3
E85111,Perivale Medical Clinic,"2-4 Conway Crescent, Perivale, Greenford, Middlesex, UB6 8HX",020 89972457,49824,51.535111207858456,-0.3339295843773581,5
E85112,Elmtrees Surgery,"Elmtrees Surgery, 2A Horsenden Lane North, Greenford, Middlesex, UB6 0PA",020 88697910,7207,51.55058677296741,-0.3387783899159526,3
E85113,Redwood Practice,"Maswell Park Health Ctr., Hounslow Avenue, Hounslow, Middlesex, TW3 2DY",020 86303488,4977,51.4611248792223,-0.3596143770475148,2
E85114,Crosslands Surgery,"1 Crosslands Avenue, Norwood Green, Southall, Middlesex, UB2 5QY",020 85741906,10377,51.491313435694416,-0.3732671207373138,4
E85115,Pentelow Practice,"26 Pentelow Gardens, Bedfont, Feltham, Middlesex, TW14 9EF",020 88902029,4248,51.45662045304142,-0.4165736395896844,2
E85116,The Cuckoo Lane Practice,"1St Floor, 20 Church Road, Hanwell, London, W7 1DR",020 85674315,8665,51.5092399,-0.3344178,4
E85118,The Fulham Medical Centre,"The Fulham Medical Centre, 446 Fulham Road, Fulham, London, SW6 1BG",020 73856001,2026,51.48073584170229,-0.1931203226388439,1
E85119,The Mwh Practice,"The Broadway Health Ctr., 71-73 The Broadway, Southall, Middlesex, UB1 1LA",020 85747746,9927,51.511247097139176,-0.379604194423088,4
E85120,The Argyle Surgery,"The Argyle Surgery, 128 Argyle Road, West Ealing, London, W13 8ER",020 80901153,7787,51.52033718061824,-0.3225916844981813,3
E85121,Guru Nanak Medical Centre,"Guru Nanak Medical Centre, 1-3 Woodlands Road, Southall, Middlesex, UB1 1EQ",020 85741246,5885,51.51177374807303,-0.3871513650109518,2
E85122,The Florence Road Surgery,"The Florence Road Surgery, 26 Florence Road, Ealing, London, W5 3TX",020 85672111,3875,51.512717105379544,-0.2986169162321349,1
E85123,The Corfton Road Surgery,"10 Corfton Road, Ealing, London, W5 2HS",020 89974215,4220,51.519743216839295,-0.2975911657243656,2
E85125,Sterndale Surgery,"Milson Road Health Centre, 1-13 Milson Road, Hammersmith, London, W14 0LJ",020 76023797,4994,51.498326405953684,-0.2214408591513411,2
E85126,Green Practice,"The Green Practice, Hounslow H.C,92 Bath Road, Hounslow, Middlesex, TW3 3LN",0208 6301350,4382,51.468133745540676,-0.3717604902010349,2
E85127,The Barnabas Medical Ctre,"The Barnabas Medical Ctre, Girton Road, Northolt, Middlesex, UB5 4SR",020 88644437,3230,51.551055770754026,-0.35377102109339403,1
E85128,Sands End Health Clinic,"Bridge House Ctr For Hlth, 1 Broughton Road Approach, Fulham, London, SW6 2FE",020 30115745,5170,51.47312849847371,-0.1913906187512376,2
E85129,The Mansell Road Practice,"73 Mansell Road, Greenford, Middlesex, UB6 9EN",020 85750083,9404,51.52565357636706,-0.3589687225072043,4
E85130,Chiswick Family Practice,"Chiswick Family Practice, 89 Southfield Road, Chiswick, London, W4 1BB",020 89956707,5460,51.502458031393864,-0.2600819675441124,2
E85600,Willow Practice,"Maswell Park Health Ctr., Hounslow Avenue, Hounslow, Middlesex, TW3 2DY",020 86303476,8065,51.4611248792223,-0.3596143770475148,3
E85605,Brentford Group Practice,"Brentford Health Centre, Boston Manor Road, Brentford, Middlesex, TW8 8DS",020 86303844,9553,51.486759701556615,-0.3100545265524113,4
E85617,Acton Town Medical Centre,"Acton Town Medical Centre, 122 Gunnersbury Lane, Acton, London, W3 9BA",020 89931314,17043,51.50245990060878,-0.2821699734042986,5
E85623,Somerset Medical Centre,"Guv Health Centre, Taywood Road, Northolt, UB5 6WL",020 85781903,12828,51.53151433728152,-0.3762607338020158,5
E85624,"Dr Uppal & Partn, Parkview Ctr For H&W","Dr Uppal, Parkview Cfh&W, 56 Bloemfontein Road, London, W12 7FG",020 37046040,7700,51.51084517882258,-0.2352203713869086,3
E85625,Chiswick Family Drs Practice,"Chiswick Health Centre, Fishers Lane, Chiswick, London, W4 1RX",020 86303551,11071,51.49356188368886,-0.259902101397666,4
E85628,Elthorne Park Surgery,"Elthorne Park Surgery, 106 Elthorne Park Road, Hanwell, London, W7 2JJ",020 85670447,10094,51.50377066880683,-0.3263303610279056,4
E85630,Western Avenue Surgery,"Western Avenue Surgery, 56 Western Avenue, Acton, London, W3 7TY",020 87434133,8629,51.51432761442964,-0.2527983721015115,4
E85633,The Southall Medical Ctr.,"Southall Medical Centre, 223 Lady Margaret Road, Southall, Middlesex, UB1 2PT",020 85744381,4562,51.5189601849841,-0.3755397436609663,2
E85635,The Vale Surgery,"97 The Vale, Acton, London, W3 7RG",020 87434086,4229,51.506499,-0.2520713,2
E85636,Park Medical Centre,"Park Medical Centre, Inver Court,Invermead Cl, Hammersmith, London, W6 0QG",020 87417471,10789,51.49696875630704,-0.24293092721204,4
E85640,The Churchfield Road Surgery,"64 Churchfield Road, Acton, London, W3 6DL",020 89923854,8294,51.50876849217797,-0.2666144705178323,3
E85643,Meadow View,"Meadow View, 141 Mandeville Road, Northolt, Middlesex, UB5 4LZ",020 84223181,4448,51.55086048874085,-0.3610186926376829,2
E85649,Fulham Cross Medical Centre,"322 Lillie Road, Fulham, London, SW6 7PP",020 73851964,3520,51.482849114557524,-0.2141010311329108,1
E85656,Sunrise Medical Centre,"Sunrise Medical Centre, 9 Abbotts Road, Southall, Middlesex, UB1 1HS",020 88439584,4687,51.51087003919858,-0.3822547619164549,2
E85657,Ealing Park Health Centre,"Ealing Park Health Centre, 195A South Ealing Road, Ealing, London, W5 4RH",020 87580570,4514,51.497023241089686,-0.3051814450860615,2
E85658,Holly Road Medical Centre,"Holly Road Medical Centre, 2A Holly Road, Chiswick, London, W4 1NU",020 86301717,9797,51.49278660776763,-0.2603781882592254,4
E85659,"Dr Rk Kukar, Parkview Ctr For H&W","Dr Kukar, Parkview Cfh&W, 56 Bloemfontein Road, London, W12 7FG",020 37046038,1928,51.51084517882258,-0.2352203713869086,1
E85663,The Saluja Clinic,"The Saluja Clinic, 36A Northcote Avenue, Southall, Middlesex, UB1 2AY",020 85745136,2062,51.51274222696232,-0.3804302450474672,1
E85677,The Horn Lane Surgery,"156 Horn Lane, Acton, London, W3 6PH",020 89924722,2983,51.51467741716428,-0.2687137351428852,1
E85680,Cloister Road Surgery,"Cloister Road Surgery, 41-43 Cloister Road, Acton, London, W3 0DF",020 89924331,10208,51.52135163690314,-0.2655889950311508,4
E85681,Jersey Practice,"The Jersey Practice, Heston Health Centre, Cranford Lane, Heston, Middlesex, TW5 9ER",020 86303434,2749,51.48396697712721,-0.3823860174622512,1
E85682,Dormers Wells Medical Centre,"Dormers Well Medical Ctr, 143 Burns Avenue, Southall, Middlesex, UB1 2LU",020 85710078,5403,51.51499708540367,-0.365361598241899,2
E85683,Glebe Street Surgery,"1 Glebe Street, Chiswick, London, W4 2BD",020 87474800,11437,51.49138549282001,-0.2568590999863614,4
E85685,The Lilyville Surgery,"Parsons Green Health Cent, 5-7 Parsons Green, London, SW6 4UL",020 77364344,5805,51.47441808401096,-0.2002992358035289,2
E85687,Acton Lane Medical Centre,"253 Acton Lane, Bedford Park, London, W4 5DG",020 89955706,5878,51.501729,-0.2656675,2
E85692,Wellesley Road Practice,"The Wellesley Rd Surgery, 7 Wellesley Road, Chiswick, London, W4 4BJ",020 86301666,6534,51.49092624545144,-0.2713966278231291,3
E85693,Grove Park Surgery,"Grove Park Surgery, 95 Burlington Lane, Chiswick, London, W4 3ET",020 87471549,5237,51.48158730867558,-0.2649809023170605,2
E85694,The Boileau Road Surgery,"Boileau Road Surgery, 104 Boileau Road, Ealing, London, W5 3AJ",020 89976604,9426,51.519424772195215,-0.2868359906704023,4
E85696,Clifford Road Surgery,"The Surgery, 65 Clifford Road, Hounslow, Middlesex, TW4 7LR",020 85775304,3554,51.47062068668268,-0.3946933736458385,1
E85697,Greenbrook Bedfont,"Bedfont Clinic, Imperial Road, Bedfont, Middlesex, TW14 8AG",020 86303414,8129,51.4526721328319,-0.4303573453497171,3
E85699,Grove Village Medical Centre,"Grove Village Medical Ctr, 4 Cleeve Court, Grove Village, Bedfont, Feltham, Middlesex, TW14 8SN",020 87516281,13106,51.44916128095922,-0.4309496067018563,5
E85707,Skyways Medical Centre,"Skyways Medical Centre, 2 Shelley Crescent, Heston, Middlesex, TW5 9BJ",020 85695688,9450,51.47741503735126,-0.3931012328621932,4
E85708,Gill Medical Practice,"32 Harlington Road East, Feltham, Middlesex, TW14 0AB",020 86301880,5399,51.45148076847433,-0.4049211398194779,2
E85712,Goodcare Practice,"Grand Union Health Centre, Taywood Road, Northolt, Middlesex, UB5 6WL",020 33137600,22182,51.53151433728152,-0.3762607338020158,5
E85713,Hounslow Family Practice,"77 Lampton Road, Hounslow, Middlesex, TW3 4JX",020 85721497,5602,51.47177347769326,-0.3668205246153809,2
E85714,The Pitshanger Lane Surgery,"209 Pitshanger Lane, Ealing, London, W5 1RQ",020 89974747,7663,51.52648270792618,-0.3109484528830918,3
E85715,Broadmead Surgery,"Grand Union Health Centre, Taywood Road, Northolt, Middlesex, UB5 6WL",020 33137570,14019,51.53151433728152,-0.3762607338020158,5
E85716,Bath Road Surgery,"Hounslow Medical Centre, 134 Bath Road, Hounslow, Middlesex, TW3 3ET",020 85779035,9208,51.470135,-0.378524,4
E85718,Hatton Medical Practice,"Hatton Medical Practice, 186 Hatton Road, Bedfont, Feltham, Middlesex, TW14 9PY",020 88908311,4459,51.45787905528302,-0.4332848223920179,2
E85719,Ashville Surgery,"Ashville Surgery, Swan House, Parsons Green Lane, Fulham, London, SW6 4HS",020 73717171,5752,51.47625507544593,-0.2011455353584446,2
E85721,The Town Surgery,"21 St.Georges Avenue, Southall, Middlesex, UB1 1PZ",020 88138122,7705,51.5123986217638,-0.3776898607783592,3
E85725,The Grove Medical Practice,"81 Danemead Grove, Petts Hill, Northolt, Middlesex, UB5 4NY",020 84238423,10702,51.555339927983596,-0.3624011610043642,4
E85726,Mattock Lane Health Centre,"Mattock Lane Health Ctr., 78 Mattock Lane, West Ealing, London, W13 9NZ",020 85671121,4591,51.5099294,-0.3152273,2
E85734,Queens Park Medical Practice,"Feltham Centre For Health, 3Rd Floor, The Centre, Feltham, Middlesex, TW13 4GU",020 86301505,9623,51.44636691973444,-0.4110857807791367,4
E85735,Brentford Family Practice,"Brentford Health Centre, Boston Manor Road, Brentford, Middlesex, TW8 8DS",020 86303822,5543,51.486759701556615,-0.3100545265524113,2
E85736,Little Park Surgery,"Little Park Surgery, 281 Hounslow Rd, Hanworth, Feltham, Middlesex, TW13 5JG",020 88946588,3129,51.44259484324792,-0.3877189103349276,1
E85739,Hmc Health Heston Great West,"Heston Health Centre, 25 Cranford Lane, Heston, Hounslow, Middlesex, TW5 9ER",020 86303414,2732,51.48396697712721,-0.3823860174622512,1
E85740,The Lynwood Surgery,"9 Lynwood Road, Ealing, London, W5 1JQ",020 89977522,4962,51.52859439303248,-0.299639779009892,2
E85743,St. Georges Medical Ctr.,"St.Georges Medical Ctr., 276 Lady Margaret Road, Southall, Middlesex, UB1 2RX",020 85782421,3741,51.5215992171302,-0.3745521590360873,1
E85744,Argyle Health-Isleworth Practice,"Isleworth Health Centre, 146 Twickenham Road, Isleworth, Middlesex, TW7 7DJ",020 86303604,2733,51.46781082351753,-0.3286898348015444,1
E85745,Jubilee Gardens Medical Centre,"Jubilee Gardens Med Ctr, Jubilee Gardens, Southall, Middlesex, UB1 2TJ",020 33137806,5240,51.5210961975541,-0.3687611787044037,2
E85746,Grove Park Terrace Surgery,"Grove Park Terrace Surg., 25 Grove Park Terrace, Chiswick, London, W4 3JL",020 86301680,3214,51.48466908353094,-0.2733327780631285,1
E85748,"The Medical Centre, Dr Kukar","The Medical Centre, 13 Ollgar Close, Uxbridge Road, London, W12 0NF",020 87407407,3392,51.5071261960314,-0.243865924582596,1
E85750,Spring Grove Medical Practice,"Spring Grove Medical Prac, Thornbury Road Centre, For Health, Thornbury Rd,Isleworth, TW7 4HG",020 86301058,11370,51.4743570649699,-0.3458491336278522,4
E86001,Mountwood Surgery,"Mountwood Surgery, Rickmansworth Road, Northwood, Middlesex, HA6 2RG",01923 828488,1960,51.61586863709089,-0.4425404192425503,1
E86003,Kingsway Surgery,"Wood End Park Centre, Judge Heath Lane, Hayes, Middlesex, UB3 2PB",020 87564388,5220,51.51747795789914,-0.4372077075603391,2
E86004,The Medical Centre,"The Medical Centre, 6 The Green, West Drayton, Middlesex, UB7 7PJ",01895 442026,5477,51.5044200503104,-0.4760680921849913,2
E86005,The Oakland Medical Centre,"The Oakland Medical Ctre, 32 Parkway, Hillingdon, Middlesex, UB10 9JX",01895 237411,12028,51.54524159537803,-0.4509292906530821,5
E86006,The Devonshire Lodge Practice,"Devonshire Lodge Practice, 2A Abbotsbury Gardens, Eastcote, Middlesex, HA5 1TG",020 8660075,4224,51.579257890244605,-0.3974578427659433,2
E86007,Harefield Practice,"Harefield Health Centre, Rickmansworth Road, Harefield, Middlesex, UB9 6JY",01895 822944,4784,51.608516058557065,-0.4791128129556355,2
E86009,Belmont Medical Centre,"The Belmont Medical Ctr, 53-57 Belmont Road, Uxbridge, Middlesex, UB8 1SD",01895 233211,4517,51.54826428497314,-0.4780362521003992,2
E86010,Yiewsley Family Practice,"The Family Practice, Yiewsley Health Centre, 20 High Street, Yiewsley, Middlesex, UB7 7DP",01895 435377,3660,51.511881,-0.4725379,1
E86011,Oxford Drive Medical Centre,"1 Oxford Drive, Eastcote, Ruislip, Middlesex, HA4 9EY",020 88663430,6200,51.56774062839466,-0.3930065616674493,3
E86012,Wood Lane Medical Centre,"The Medical Centre, 2A Wood Lane, Ruislip, Middlesex, HA4 6ER",01895 632677,9484,51.57121590258136,-0.4251637343534325,4
E86014,Cedars Medical Centre,"The Cedars Medical Centre, 118 Elliott Avenue, Ruislip, Middlesex, HA4 9LZ",020 84299595,6464,51.57057528969421,-0.4050275800554582,3
E86015,Central Uxbridge Surgery,"Central Uxbridge Surgery, George Street, Uxbridge, Middlesex, UB8 1UB",01895 231925,14088,51.54622922501379,-0.4757389612652573,5
E86016,The Pine Medical Centre,"The Pine Medical Centre, Fredora Avenue, Hayes, Middlesex, UB4 8RB",020 84328569,24776,51.5275908053881,-0.4168375553770977,5
E86017,Hayes Medical Centre,"Hayes Medical Centre, 157 Old Station Road, Hayes, Middlesex, UB3 4NA",020 85732037,12447,51.50105476525008,-0.4228431505574612,5
E86018,Townfield Doctors Surgery,"Hayes Community Campus, 34 College Way, Hayes, Middlesex, UB3 3DZ",020 85735856,14789,51.51584298490789,-0.4112205001039029,5
E86019,The Warren Practice,"The Warren Practice, The Warren, Uxbridge Road, Hayes, Middlesex, UB4 0SF",020 85732476,13092,51.51968321325182,-0.4086077329649803,5
E86020,Yeading Court Surgery,"1-2 Yeading Court, Masefield Lane, Hayes, Middlesex, UB4 9AJ",020 88451515,6973,51.52829879464362,-0.4000900509042772,3
E86022,The Abbotsbury Practice,"Eastcote Health Centre, Abbotsbury Gardens, Eastcote, Middlesex, HA5 1TG",020 88660121,16081,51.579257890244605,-0.3974578427659433,5
E86024,King Edwards Medical Centre,"King Edwards Medical Ctr, 19 King Edward'S Road, Ruislip, Middlesex, HA4 7AE",01895 632021,15923,51.57460882566184,-0.4280625485050815,5
E86026,Parkview Surgery,"60 West Drayton Road, Hillingdon, Uxbridge, Middlesex, UB8 3LA",020 85737674,7995,51.52599840333722,-0.440274848347146,3
E86027,Otterfield Medical Centre,"Otterfield Medical Centre, 25 Otterfield Rd,Yiewsley, West Drayton, Middlesex, UB7 8PE",01895 452540,15115,51.51465795693017,-0.4702211208430413,5
E86028,Eastbury Surgery,"Eastbury Surgery, 3 Eastbury Road, Northwood, Middlesex, HA6 3BG",01923 845945,11334,51.61162753351578,-0.4239100723422944,4
E86029,Cedar Brook Practice,"The Cedar Brook Practice, 11 Kingshill Close, Hayes, Middlesex, UB4 8DD",020 88457100,7750,51.53409158789361,-0.4141321166313428,3
E86030,Brunel Medical Centre,"Brunel Medical Centre, Brunel University, Kingston Lane,Uxbridge, Middlesex, UB8 3PH",01895 234426,11864,51.53300812837502,-0.4736889720237398,5
E86033,St Martins Medical Centre,"St.Martin'S Medical Ctr., 21 Eastcote Road, Ruislip, Middlesex, HA4 8BE",01895 632410,7218,51.57764624067422,-0.4245662579387295,3
E86034,Church Road Surgery,"Church Road Surgery, 4A Church Road, Cowley, Middlesex, UB8 3NA",01895 233736,8679,51.52739702481018,-0.4748398102667712,4
E86036,Hillingdon Health Centre,"Hillingdon Health Centre, 4 Freezeland Way, Hillingdon, Middlesex, UB10 9QF",01895 234440,10742,51.55162126793069,-0.4480529009360022,4
E86038,Glendale Medical Centre,"155 High St, Harlington, Hayes, Middlesex, UB3 5DA",020 88978288,14917,51.490348784736604,-0.4345343994650633,5
E86041,Acre Surgery,"Acre Surgery, Neal Close, Acre Way, Northwood, Middlesex, HA6 1TQ",01923 820844,8937,51.604465126591656,-0.4115515749846996,4
E86042,The High Street Practice,"Yiewsley Health Centre, 20 High Street, Yiewsley, Middlesex, UB7 7DP",01895 422292,13571,51.511881,-0.4725379,5
E86605,Ladygate Lane Medical Practice,"22 Ladygate Lane, Ruislip, Middlesex, HA4 7QU",01895 632741,13140,51.58051192462119,-0.4364608404177041,5
E86609,North Hyde Road Surgery,"167 North Hyde Road, Hayes, Middlesex, UB3 4NS",020 85738560,8982,51.49784816632529,-0.4137767594186333,4
E86610,Willow Tree Surgery,"The Willow Tree Surgery, 2 Jollys Lane, Hayes, Middlesex, UB4 9NS",020 88421024,6373,51.52534146722846,-0.3863837265108605,3
E86612,Shakespeare Health Centre,"Elers Road Clinic, Elers Road, Hayes, Middlesex, UB3 1NY",020 37943119,4256,51.49842122647679,-0.4370383755288191,2
E86615,Acrefield Surgery,"700 Field End Road, South Ruislip, Middlesex, HA4 0QR",020 84225900,15151,51.562225318309686,-0.3823085264648732,5
E86618,Carepoint Practice,"Northwood Health Centre, Neal Close, Acre Way, Northwood, Middlesex, HA6 1TQ",01923 820866,2390,51.604465126591656,-0.4115515749846996,1
E86619,Wallasey Medical Centre,"1 Wallasey Crescent, Ickenham, Middlesex, UB10 8SA",01895 674156,2630,51.5669151054317,-0.4520050647771043,1
E86620,West London Medical Centre,"West London Medical Ctr, 20 Pield Heath Road, Hillingdon, Middlesex, UB8 3NG",01895 233881,9440,51.5257651,-0.4534094,4
E86625,Kincora Doctors Surgery,"Kincora, Coldharbour Lane, Hayes, Middlesex, UB3 3HG",0844 4772523,6451,51.51166609121772,-0.412216060763145,3
E86626,Queens Walk Medical Centre,"The Medical Centre, 69 Queens Walk, Ruislip, Middlesex, HA4 0NT",020 88422991,4853,51.56271603956893,-0.3931548353832003,2
E86629,Dr Mlr Siddiqui'S Practice,"21 Walnut Way, South Ruislip, Middlesex, HA4 6TA",020 88454400,5190,51.55201101738436,-0.39941697829071,2
E86632,Acorn Medical Centre,"Acorn Medical Centre, 149 Long Lane, Hillingdon, Middlesex, UB10 9JN",01895 237474,6539,51.54232643610204,-0.4516858731643829,3
E86637,Heathrow Medical Centre,"Heathrow Medical Centre, 1 St.Peter'S Way, Harlington, Middlesex, UB3 5AB",020 87541555,1282,51.493020323603716,-0.4339243058376283,1
E86640,Southcote Clinic,"Southcote Clinic, Southcote Rise, Ruislip, Middlesex, HA4 7LW",01895 679800,2549,51.577768634869116,-0.4333411948036075,1
E87002,Victoria Medical Centre,"Victoria Medical Centre, 29 Upper Tachbrook Street, London, SW1V 1SN",020 78342298,2208,51.49291025076951,-0.1389782343360074,1
E87003,North Kensington Medical Centre,"North Kensington Med Ctre, St.Quintin Avenue, London, W10 6NX",020 89695151,2740,51.51919888048581,-0.2203251717058335,1
E87004,The Redcliffe Surgery,"The Redcliffe Surgery, 10 Redcliffe Street, London, SW10 9DT",020 74602222,1909,51.48625415224102,-0.1888404233609479,1
E87005,Belgravia Surgery,"The Belgravia Surgery, 24-26 Ecclestone Street, Belgravia, London, SW1W 9PY",020 75908000,8258,51.49508897355376,-0.1485864981316134,3
E87006,Little Venice Medical Centre,"Little Venice Medical Ctr, 2 Crompton Street, London, W2 1ND",020 33269301,2743,51.52345612827037,-0.1766387629984817,1
E87007,Westbourne Grove Medical Centre,"241 Westbourne Grove, London, W11 2SE",020 72295800,4337,51.514209601007316,-0.2003857667097106,2
E87008,Paddington Green Health Centre,"Paddington Green Hlth Ctr, 4 Princess Louise Close, London, W2 1LQ",020 78871600,4053,51.520939157164726,-0.1732520883661992,1
E87009,The Garway Medical Practice,"Pickering House, Hallfield Estate, London, W2 6HF",020 76162900,1070,51.515391988846645,-0.1854941686209925,1
E87010,Maida Vale Medical Centre,"Maida Vale Health Centre, 40 Biddulph Mansions, 210 Elgin Avenue, London, W9 1HT",020 72866464,8734,51.5284191232234,-0.1887967258247861,4
E87011,Lisson Grove Health Centre,"Lisson Grove Health Ctr., Gateforth Street, London, NW8 8EG",020 33701940,3454,51.52479235548442,-0.169392492715232,1
E87013,Stanhope Mews Surgery,"7 Stanhope Mews West, London, SW7 5RB",020 78350400,5265,51.49447428078973,-0.1819310746977553,2
E87016,Holland Park Surgery,"Lower Ground Floor, 12 Phillimore Walk, London, W8 7RX",020 72214334,3351,51.501411812245856,-0.1944350804189371,1
E87021,Shirland Medical,"Queens Park Health Centre, Dart Street, London, W10 4LD",020 89692626,5817,51.53059896223841,-0.2076297412690016,2
E87024,The Golborne Medical Centre,"12-16 Golborne Road, London, W10 5PG",020 89692058,6944,51.52394714637538,-0.2067626700418231,3
E87026,Meanwhile Garden Medical Centre,"Meanwhile Garden Med Ctr, Unit 5, 1-31 Elkstone Road, London, W10 5NT",020 89605620,1618,51.522227890959215,-0.2031256149472586,1
E87029,Portland Road Practice,"Portland Road Practice, 16 Portland Road, London, W11 4LA",020 77277711,11853,51.50736632411455,-0.2080189560946531,5
E87034,Pimlico Health At The Marven Surgery,"Marven Medical Centre, 46-50 Lupus Street, Westminster, London, SW1V 3EB",020 78341160,9397,51.4884009,-0.1374885,4
E87037,Connaught Square Practice,"41 Connaught Square, London, W2 2HL",020 74024026,6366,51.51397354323081,-0.1642637096910677,3
E87038,Elgin Clinic,"40 Elgin Avenue, London, W9 3QT",020 72860747,14766,51.5248028,-0.1985547,5
E87043,Emperor'S Gate Centre For Health,"First Floor, 49 Emperor'S Gate, London, SW7 4HJ",020 72445670,12979,51.49630483203044,-0.1863242873885336,5
E87045,Covent Garden Medical Centre,"Covent Garden Medical Ctr, Eric Knapp, 47 Shorts Gardens, London, WC2H 9AA",020 73797209,9603,51.515562026862646,-0.1237143997197047,4
E87046,The Randolph Surgery,"The Randolph Surgery, 235A Elgin Avenue, London, W9 1NH",020 72662621,9785,51.52985350301782,-0.1868806283900232,4
E87047,Earls Court Medical Centre,"Earls Court Medical Ctr, 248 Earls Court Road, London, SW5 9AD",020 78351455,8524,51.4917719,-0.1926222,4
E87048,Rosary Garden Surgery,"45 Rosary Gardens, London, SW7 4NQ",020 73736557,8929,51.4920995948041,-0.1830483255368269,4
E87052,Crompton Medical Centre,"Crompton Medical Centre, 1 Crompton Street, London, W2 1ND",020 77237789,8762,51.52345612827037,-0.1766387629984817,4
E87061,The Pembridge Villas Surgery,"The Surgery, 45A Pembridge Villas, Nottinghill Gate, London, W11 3EP",020 77272222,6815,51.51298975331276,-0.1970758793081931,3
E87063,Kings Road Medical Centre,"Kings Road Medical Centre, 529 Kings Road, Chelsea, London, SW10 0UD",0844 8151870,8641,51.48035505253381,-0.1847680592599515,4
E87065,The Notting Hill Medical Centre,"The Notting Hill Med Ctr, 14 Codrington Mews, London, W11 2EH",020 77275800,4412,51.51485359523952,-0.2072062898740948,2
E87066,Fitzrovia Medical Centre,"Fitzrovia Medical Centre, 31 Fitzroy Square, London, W1T 6EU",020 73875798,9037,51.52242221207349,-0.1405862262779946,4
E87067,Colville Health Centre,"Colville Health Centre, 51 Kensington Park Road, London, W11 1PA",020 77274592,4420,51.51583684169544,-0.2062308564489721,2
E87069,Soho Centre For Health And Care,"Soho Ctr For Hlth & Care, 1St Floor, 30 Soho Square, London, W1D 3QS",020 75346570,8798,51.51452389036539,-0.1319145130601459,4
E87070,Crawford Street Surgery,"The Crawford St Surgery, 95-97 Crawford Street, London, W1H 2HJ",020 77236324,9204,51.5193214086568,-0.1612235527081743,4
E87609,St Johns Wood Medical Practice,"Brampton House, 60 Grove End Road, London, NW8 9NH",020 36579449,3414,51.532937268972645,-0.1743384456849081,1
E87637,Grand Union Health Centre,"209 Harrow Road, London, W2 5EH",020 72861231,9079,51.52031945000001,-0.1913978000000002,4
E87648,Mayfair Medical Centre,"Mayfair Medical Centre, 3-5 Weighhouse Street, London, W1K 5LS",020 74931647,8171,51.51349930360096,-0.1501841933005175,3
E87663,Third Floor Lanark Road Medical Centre,"165 Lanark Road, 3Rd Floor Medical Centre, London, W9 1NZ",020 76248616,7683,51.53041396352208,-0.1857927092500171,3
E87665,The Chelsea Practice,"The Chelsea Practice, The Violet Melchett Clin., Flood Walk, London, SW3 5RR",0844 4778722,3439,51.4870463,-0.1662537,1
E87677,Imperial College Health Centre,"Imperial College Hth Ctr, (Southside,Watts Way), 40 Princes Gardens, London, SW7 1LY",020 75846301,5000,51.498654452028035,-0.1720109520624443,2
E87681,Newton Medical Centre,"The Newton Medical Centre, 14-18 Newton Road, London, W2 5LT",020 72294578,4323,51.51628115696639,-0.1918293381350269,2
E87691,Westminster School,"Westminster School, 17 Deans Yard, London, SW1P 3PA",020 75892478,2329,51.498865618179856,-0.1277904177202955,1
E87694,The Royal Mews Surgery,"The Royal Mews Surgery, Buckingham Palace, London, SW1W 0QH",020 79304832,4920,51.49876440515087,-0.1452231374727501,2
E87701,The Abingdon Health Centre,"The Abingdon Health Ctre, 88-92 Earls Court Road, Kensington, London, W8 6EG",020 77958470,6635,51.4962877,-0.197129,3
E87702,The Surgery,"7 Kynance Place, Gloucester Road, London, SW7 4QS",020 75813040,2523,51.497626142355536,-0.1845429949751671,1
E87706,The Foreland Medical Centre,"The Foreland Medical Ctr, 188 Walmer Road, London, W11 4ES",020 77272604,4061,51.51251850948175,-0.2127023450412486,2
E87711,Royal Hospital Chelsea,"Royal Hospital Chelsea, Royal Hospital Road, London, SW3 4SR",020 78815267,5326,51.48739998652522,-0.1573370745336009,2
E87714,Soho Square General Practice,"Soho Square General Pract, Ist Floor,1 Frith Street, London, W1D 3HZ",020 34056570,3462,51.51452389036539,-0.1319145130601459,1
E87715,Scarsdale Medical Centre,"Scarsdale Medical Centre, 2 Scarsdale Place, London, W8 5SX",020 79381887,3447,51.4994073,-0.1919002,1
E87720,Kensington Park Medical Centre,"Kensington Park Med/Ctr, 75 Russell Road, London, W14 8HW",020 73716060,3444,51.4973245089126,-0.2087874010172307,1
E87722,Lancaster Gate Medical Centre,"Lancaster Medical Centre, 20-21 Leinster Terrace, London, W2 3ET",020 74799750,4305,51.511753005674564,-0.1833617483311301,2
E87733,The Exmoor Surgery,"The Exmoor Surgery, Exmoor Street, London, W10 6DZ",020 89625166,11372,51.522361987071896,-0.217218001276493,4
E87737,Marylebone Health Centre,"Marylebone Health Centre, 17A Marylebone Road, London, NW1 5LT",020 79356328,8502,51.5228381243478,-0.1515391420577499,4
E87738,Knightsbridge Medical Centre,"Knightsbridge Medical Ctr, 71-75 Pavilion Road, Knightsbridge, London, SW1X 0ET",020 82372600,10826,51.49806966256694,-0.1599178949805584,4
E87739,Millbank Medical Centre,"Millbank Medical Centre, 20 Page Street, London, SW1P 4EN",020 78345502,6125,51.494030071233425,-0.1302314144722499,3
E87740,The Doctor Hickey Surgery,"The Cardinal Hume Centre, 3 Arneway Street, London, SW1P 2BG",020 72228593,12376,51.49574989489851,-0.1315008451039351,5
E87741,Woodfield Road Medical Centre,"The Medical Centre, 7E Woodfield Road, London, W9 3XZ",020 72661449,13516,51.522628905224295,-0.1975707456448891,5
E87742,The Golborne Medical Centre,"The Golborne Medical Cntr, 12-16 Golborne Road, London, W10 5PE",020 89644801,7367,51.524021421568825,-0.2063272925179545,3
E87745,Cavendish Health Centre,"Cavendish Health Centre, 53 New Cavendish Street, London, W1G 9TQ",020 74875244,10917,51.51933063773786,-0.1480920888796291,4
E87746,Brompton Medical Centre,"Brompton Medical Centre, 237 Old Brompton Road, London, SW5 0EA",020 73734102,7751,51.489435353905506,-0.1898667141040723,3
E87750,Earls Court Surgery,"269 Old Brompton Road, Earls Court, London, SW5 9JA",020 73702643,8917,51.48880283762095,-0.1917784711721627,4
E87751,Srikrishnamurthy Harrow Road Surgery,"574 Harrow Road, London, W10 4NJ",020 89605499,6446,51.52656302927309,-0.2067031459285196,3
E87753,Belgrave Medical Centre,"Belgrave Medical Centre, 13 Pimlico Road, London, SW1W 8NA",020 77305171,5287,51.49076718127693,-0.1508740316823096,2
E87754,Wellington Health Centre,"The Wellington Health Ctr, 16 Wellington Road, St John'S Wood, London, NW8 9SP",020 77223382,8453,51.532274958046415,-0.1712844449401951,4
E87755,Queens Park Health Centre,"Queens Park Health Centre, Dart Street, Kensal Green, London, W10 4LY",020 89649990,10968,51.53091093373208,-0.2058258382468348,4
E87756,Ground Floor Lanark Medical Centre,"The Lanark Medical Centre, Ground Floor, 165 Lanark Road, London, W9 1NZ",020 73281128,32302,51.53041396352208,-0.1857927092500171,5
E87762,The Good Practice,"409 Kings Road, London, SW10 0LR",020 73511766,19132,51.4827866125,-0.17783223125,5
E87768,Kings College Health Centre,"3Rd Floor, Bush House, South East Wing, 300 Strand, London, WC2B 4PJ",020 78482613,3866,51.512741996737006,-0.1179224484223979,1
E87772,Great Chapel Street Medical Centre,"4Th Fl Soho Ctr For Hlth, 1 Frith Street, London, W1D 3HZ",020 74379360,17649,51.5151727,-0.1342188,5
F82001,Halbutt Street Surgery,"2 Halbutt Street, Dagenham, Essex, RM9 5AS",020 85921544,2961,51.54702059046851,0.1467417179537037,1
F82002,Haiderian Medical Centre,"181 Corbets Tey Road, Upminster, Essex, RM14 2YN",01708 225161,3471,51.54949885685499,0.2472939449517476,1
F82003,Dr M Fateh'S Practice,"2 First Avenue, Dagenham, Essex, RM10 9AT",020 85924082,6468,51.529574178368044,0.1575415512948748,3
F82005,Dr M Goyal'S Practice,"Church Elm Health Centre, Church Elm Lane, Dagenham, Essex, RM10 9RR",020 84653000,6644,51.53999677677135,0.1568352247110287,3
F82006,Cranham Village Surgery,"143 Ingrebourne Gardens, Cranham, Upminster, Essex, RM14 1BJ",01708 228888,14921,51.56261580455785,0.2633935810018896,5
F82007,The Green Wood Practice,"89 Gubbins Lane, Harold Wood, Romford, Essex, RM3 0DR",01708 346666,13514,51.595326197391046,0.2327200376321948,5
F82008,Maylands Healthcare,"Maylands Healthcare, 300 Upper Rainham Road, Hornchurch, Essex, RM12 4EQ",01708 460180,11207,51.5528765,0.1906019,4
F82009,North Street Medical Care,"North Street Medical Care, 274 North Street, Romford, Essex, RM1 4QJ",01708 629733,8558,51.58618009559486,0.1733445525484186,4
F82010,Petersfield Surgery,"Petersfield Surgery, 70 Petersfield Avenue, Harold Hill,Romford, Essex, RM3 9PD",01708 343113,14017,51.60572048734526,0.2327967554692842,5
F82011,St Edwards Medical Centre,"Mawney Medical Centre, 7 St.Edwards Street, Romford, Essex, RM1 3DQ",01708 741096,9137,51.58034082594894,0.18174068592695106,4
F82012,Five Elms Medical Practice,"Five Elms Health Centre, Five Elms Road, Dagenham, Essex, RM9 5TT",020 85171175,12926,51.55331491032925,0.1423498701620623,5
F82013,Western Road Medical Centre,"Western Road Medical Ctr, 99 Western Road, Romford, Essex, RM1 3LS",01708 775300,7035,51.57898373421683,0.1874923790069567,3
F82014,Kucchai,"Harold Hill Health Centre, Gooshays Drive, Harold Hill, Romford, Essex, RM3 9SU",01708 343991,14554,51.606266247447024,0.2248947405595108,5
F82015,Hedgemans Medical Centre,"92 Hedgemans Road, Dagenham, Essex, RM9 6HT",020 85924242,8258,51.53975597362086,0.1432127634052918,3
F82016,Central Park Surgery,"Harold Hill Health Centre, Gooshays Drive, Harold Hill, Romford, Essex, RM3 9SU",01708 331802,8691,51.606266247447024,0.2248947405595108,4
F82017,St Albans Surgery,"Urswick Medical Centre, Urswick Road, Dagenham, Essex, RM9 6EA",020 89844460,5067,51.536725720050036,0.1334653607144525,2
F82018,Barking Medical Group Practice,"Barking Group Practice, 130 Upney Lane, Barking, Essex, IG11 9LT",020 84774317,3899,51.541315127118864,0.0972528440599956,1
F82019,The Upstairs Surgery,"Ashton Gardens, Chadwell Heath, Romford, Essex, RM6 6RT",020 85992435,3403,51.57371554723814,0.1401052245935642,1
F82021,The New Medical Centre,"The New Medical Centre, 264 Brentwood Road, Romford, Essex, RM2 5SU",01708 478800,11691,51.57446584496861,0.2040166499883403,5
F82022,The Rosewood Medical Centre,"The Rosewood Medical Ctr, 30 Astra Close, Elm Park, Hornchurch, Essex, RM12 5NJ",01708 523168,7596,51.5428009950065,0.2010866401583883,3
F82023,High Street Surgery,"219 High Street, Hornchurch, Essex, RM11 3XT",01708 447747,8575,51.561551959153405,0.2235624820364855,4
F82025,Dr Bk Jaiswal'S Practice,"Julia Engwell Health Ctr., Woodward Road, Dagenham, Essex, RM9 4SR",020 85925500,3913,51.53893446013479,0.1255953319787177,1
F82027,Dr P Prasad'S Practice,"Faircross Health Centre, 51 Upney Lane, Barking, Essex, IG11 9LD",020 85943667,13191,51.542861958364256,0.0962423312410587,5
F82028,Wood Lane Surgery,"39 Wood Lane, Elm Park, Hornchurch, Essex, RM12 5HX",01708 450902,5214,51.544581964157935,0.1962323519430151,2
F82030,Lynwood Medical Centre,"Lynwood Medical Centre, 2A-6 Lynwood Drive, Romford, Essex, RM5 3QL",01708 208669,12636,51.60170994560664,0.1641364608278625,5
F82031,Dr Sanomi,"Rush Green Medical Centre, 261 Dagenham Road, Romford, Essex, RM7 0XR",01708 728261,15716,51.560717765630294,0.1759679649060683,5
F82033,Dr Vm Patel,"9 Glanville Drive, Hornchurch, Essex, RM11 3SZ",01708 442117,2030,51.56111180004746,0.2287494867293218,1
F82034,Victoria Medical Centre,"Victoria Medical Centre, 1 Queens Road, Barking, Essex, IG11 8GD",020 84778760,10546,51.54094631809707,0.0762587415223686,4
F82038,Dr Sz Haider'S Practice,"Valence Medical Centre, 561-563 Valence Avenue, Dagenham, Essex, RM8 3RH",020 85929111,9732,51.55307722463017,0.1307120061973893,4
F82039,Dr P & S Poologanathan,"Rush Green Medical Centre, 261 Dagenham Road, Romford, Essex, RM7 0XR",0844 4773288,11855,51.560717765630294,0.1759679649060683,5
F82040,John Smith Medical Centre,"145-207 Bevan Avenue, Barking, Essex, IG11 9LL",020 85949013,19584,51.53889901264049,0.112124788126433,5
F82042,Aurora Medcare,"Thames View Health Centre, Bastable Avenue, Barking, IG11 0LG",020 85073056,7249,51.52783404297502,0.1037085371217914,3
F82045,Chowdhury,"Oak Lodge, 6 Oak Road, Harold Wood, Romford, Essex, RM3 0PT",01708 342139,5492,51.59233660989669,0.2338728201430006,2
F82051,Laburnum Health Centre,"Laburnum Health Centre, George Crouch Centre, Althorne Way, Dagenham, Essex, RM10 7DF",020 85170222,10517,51.560661812962216,0.1512074632716165,4
F82053,Upminster Medical Centre,"224-226 St Mary'S Lane, Upminster, Essex, RM14 3DH",01708 251407,8963,51.55673086165042,0.2547050717174792,4
F82055,Hornchurch Healthcare,"The Surgery, 58B Billet Lane, Hornchurch, Essex, RM11 1XA",01708 440187,13356,51.56688985800682,0.2190178445524807,5
F82604,Marks Gate Health Centre,"Marks Gate Health Centre, Lawn Farm Grove, Chadwell Heath, Romford, Essex, RM6 5LL",020 89180560,4021,51.584643685635136,0.1370388145068776,1
F82607,South Hornchurch Medical Practice,"South Hornchurh Hlth Ctr, 106 South End Road, Rainham, Essex, RM13 7XJ",01708 553120,2066,51.53122646472063,0.191142336940379,1
F82609,Dr Pm Patel,"24 Suttons Avenue, Hornchurch, Essex, RM12 4LF",01708 442711,9562,51.55631875070753,0.2192533870605037,4
F82610,Dr Gupta,"206 Mawney Road, Romford, Essex, RM7 8BU",01708 739379,5129,51.58291388056979,0.1646866385005692,2
F82612,The White House Surgery,"12 Movers Lane, Barking, Essex, IG11 7UN",020 85944042,2476,51.53400429043679,0.0881643963480614,1
F82619,Harlow Road Surgery,"The Surgery, 1 Harlow Road, Rainham, Essex, RM13 7UP",01708 552072,3226,51.53193513391447,0.1864182317850251,1
F82621,Dewey Practice (Dr Christopher),"281 Oxlow Lane, Dagenham, Essex, RM10 7YU",020 85920049,2862,51.551483865305656,0.1588378199788089,1
F82624,Upminster Bridge Surgery,"Upminster Bridge Surgery, 126 Upminster Road, Hornchurch, Essex, RM12 6PL",01708 440642,10632,51.55826550000001,0.2347689,4
F82625,Abbey Medical Centre,"Abbey Medical Centre, 1 Harpour Road, Barking, Essex, IG11 8RJ",020 80908106,3403,51.5422687521537,0.0782135344728247,1
F82627,Rainham Health Centre,"Rainham Health Centre, Upminster Road South, Rainham, Essex, RM13 9AB",01708 796579,6234,51.519362307325935,0.1970449463902807,3
F82630,Chase Cross Medical Centre,"13-15 Chase Cross Road, Collier Row, Romford, Essex, RM5 3PJ",01708 749918,6733,51.6006999,0.1637112999999999,3
F82634,Heathway Medical Centre,"Broad Street Resource Ctr, Moreland Road, Dagenham, Essex, RM10 9HU",020 85921771,5617,51.535032676982325,0.1522437780012391,2
F82638,Modern Medical Centre,"The Surgery, 195 Rush Green Road, Romford, Essex, RM7 0PX",01708 741872,11220,51.565417863764154,0.1775920136940474,4
F82642,Gables Surgery,"The Gables Surgery, Markyate Road, Dagenham, Essex, RM8 2LD",020 36675410,2953,51.54570200985384,0.1178628197541066,1
F82647,Dr R Chibber'S Practice,"7 Salisbury Avenue, Barking, Essex, IG11 9XQ",0844 4778704,3474,51.538809862548504,0.0837444385471294,1
F82648,Ingrebourne Medical Centre,"135 Straight Road, Harold Hill, Romford, Essex, RM3 7JJ",01708 372021,2172,51.6003052357152,0.2105528795578518,1
F82649,Berwick Surgery,"Berwick Surgery, 17 Berwick Road, Rainham, Essex, RM13 9QU",01708 520830,20666,51.5271741340917,0.2139430687573509,5
F82650,Dr Aa Ansari'S Practice,"364-370 Ripple Road, Barking, Essex, IG11 9RS",020 89113777,14281,51.535423670757524,0.0942999711187876,5
F82660,Tulasi Medical Centre,"Tulasi Medical Centre, 10 Bennetts Castle Lane, Dagenham, Essex, RM8 3XU",020 85901773,1011,51.56100480432894,0.1244891354156236,1
F82661,Green Lane Surgery,"872 Green Lane, Dagenham, Essex, RM8 1BX",020 85997151,5702,51.561368729202655,0.1327969561647814,2
F82663,Dr Marks Practice,"107 Brentwood Road, Romford, Essex, RM1 2SB",01708 740244,2237,51.57255257898797,0.1923789023710738,1
F82666,Rahman & Tsoi,"The Surgery, 482 South End Road, Hornchurch, Essex, RM12 5PA",01708 476036,5027,51.547230796581715,0.2040445702793498,2
F82670,Abbamoor Surgery,"Harold Hill Health Centre, Gooshays Drive, Harold Hill, Romford, Essex, RM3 9SU",01708 341188,16591,51.606266247447024,0.2248947405595108,5
F82671,Prasad,"137 Straight Road, Harold Hill, Romford, Essex, RM3 7JJ",01708 343281,6686,51.6003052357152,0.2105528795578518,3
F82674,Cranham Health Centre,"Cranham Health Centre, Avon Road, Upminster, Essex, RM14 1RG",0300 3001863,4377,51.568865248954495,0.2652913660541133,2
F82675,Billet Lane Medical Practice,"Billet Lane Medical Pract, 58B Billet Lane, Hornchurch, Essex, RM11 1XA",01708 442377,5287,51.56688985800682,0.2190178445524807,2
F82677,Dr A Moghal'S Practice,"Becontree Medical Centre, 641-645 Becontree Avenue, Dagenham, Essex, RM8 3HP",0203 7473020,37053,51.55937232557353,0.1410764238157336,5
F82678,Dr Km Alkaisy Practice,"Urswick Medical Centre, Urswick Road, Dagenham, Essex, RM9 6EA",020 89844470,12920,51.536725720050036,0.1334653607144525,5
F82679,Dr Dp Shah'S Practice,"Parkview Medical Centre, 199 Reede Road, Dagenham, Essex, RM10 8EJ",020 85922664,8047,51.545121851101854,0.1600366010107336,3
F82680,Highgrove Surgery,"Barking Community Hosp, Upney Lane, Barking, Essex, IG11 9LX",020 38174117,16032,51.53874010742989,0.0987748567343251,5
F82686,Dr A Patel,"Ashton Gardens, Chadwell Heath, Romford, Essex, RM6 6RT",020 85180580,17588,51.57371554723814,0.1401052245935642,5
F83002,River Place Health Centre,"River Place Health Centre, River Place,Essex Road, London, N1 2DE",020 77042832,5115,51.54051086133815,-0.09658693980576,2
F83003,Park End Surgery,"The Park End Surgery, 3 Park End, (Off South Hill Park), London, NW3 2SE",020 74357282,5333,51.55602628528537,-0.1656725207172726,2
F83004,Archway Medical Centre,"Archway Medical Centre, 652 Holloway Road, London, N19 3NU",020 72720111,5803,51.56240077712214,-0.1257690448967411,2
F83005,Gower Street Practice,"Gower Street Practice, 20 Gower Street, London, WC1E 6DP",020 76367628,8392,51.520374502258434,-0.1300993462922019,3
F83006,Ampthill Practice,"Crowndale Health Centre, 59 Crowndale Road, London, NW1 1TN",020 73837333,3432,51.53448277730151,-0.1378470774061004,1
F83007,Roman Way Medical Centre,"Roman Way Medical Centre, 28 Laycock Street, London, N1 1SW",020 76077502,3145,51.54423507162407,-0.1046479944042519,1
F83008,The Goodinge Group Practice,"Goodinge Health Centre, Goodinge Cl, 20 North Rd, London, N7 9EW",020 76196670,13794,51.54825040349492,-0.1254419783276726,5
F83010,Islington Central Medical Centre,"Islington Central M. Ctr, 28 Laycock Street, London, N1 1SW",020 73590445,14260,51.54423507162407,-0.1046479944042519,5
F83011,Primrose Hill Surgery,"Primrose Hill Surgery, 99 Regents Park Road, London, NW1 8UR",020 77220038,10719,51.5420549,-0.1563298,4
F83012,Elizabeth Avenue Group Practice,"Elizabeth Ave Group Prac., 2 Elizabeth Avenue, Islington, London, N1 3BS",020 72266363,4348,51.53902297180318,-0.0919047515255604,2
F83015,St Johns Way Medical Centre,"St. Johns Way Medical Ctr, 96 St. Johns Way, London, N19 3RN",020 72721585,4871,51.568022288829965,-0.1309200250538993,2
F83017,Hampstead Group Practice,"Hampstead Group Practice, 75 Fleet Road, Hampstead, London, NW3 2QU",020 74354000,10078,51.55333334149843,-0.1616200122589595,4
F83018,Prince Of Wales Group Surgery,"52 Prince Of Wales Road, Camden, London, NW5 3LN",020 72670067,24421,51.54691312656204,-0.1471165505482539,5
F83019,Abbey Medical Centre,"Abbey Medical Centre, 85 Abbey Road, London, NW8 0AG",020 76042455,8899,51.53792143102939,-0.1851318182213689,4
F83020,Adelaide Medical Centre,"Adelaide Medical Centre, 111 Adelaide Road, London, NW3 3RY",020 77224135,33060,51.543523795120834,-0.1611190078363719,5
F83021,Ritchie Street Group Practice,"Ritchie Street Group Prac, 34 Ritchie Street, London, N1 0DG",020 78371663,6846,51.53471709132776,-0.1078254567337148,3
F83022,Caversham Group Practice,"4 Peckwater Street, Kentish Town, London, NW5 2UP",020 74285700,4345,51.5503798,-0.1374360832343623,2
F83023,James Wigg Practice,"Kentish Town Health Ctre, 2 Bartholomew Road, London, NW5 2BX",020 74284555,5003,51.546404132421905,-0.1399548177122691,2
F83025,The Regents Park Practice,"Regents Park Medical Ctr., Cumberland Market, London, NW1 3RH",020 73884474,7056,51.529329986686896,-0.1418185885482183,3
F83032,St Peter'S Street Medical Practice,"St.Peter'S St Med Pract, 16 1/2 St.Peter'S Street, Islington, London, N1 8JG",020 72889320,2692,51.5356955,-0.1009449,1
F83033,Barnsbury Medical Practice,"Bingfield Primary Care Cr, 8 Bingfield Street, London, N1 0AL",020 77009700,907,51.539320874379385,-0.119262100428951,1
F83034,New North Health Centre,"New North Health Centre, 287-293 New North Road, London, N1 7AA",020 72269090,3598,51.53753411883688,-0.0915921066872676,1
F83039,The Rise Group Practice,"Hornsey Rise Health Ctr., Hornsey Rise, London, N19 3YU",020 75302484,3535,51.571444007628,-0.1250074890680975,1
F83042,Gray'S Inn Road Medical Centre,"Gray'S Inn Road Med Ctr, 77 Gray'S Inn Road, Holborn, London, WC1X 8TS",020 74059360,7645,51.52273435816775,-0.1145110876820243,3
F83043,Ridgmount Practice,"Ridgmount Practice, 8 Ridgmount Street, London, WC1E 7AA",020 73876306,12191,51.520465482297524,-0.1311957150026561,5
F83044,The Bloomsbury Surgery,"The Bloomsbury Surgery, 1 Handel Street, London, WC1N 1PD",020 78378559,4944,51.5256159,-0.1230737,2
F83045,The Miller Practice,"The Miller Practice, 49 Highbury New Park, Highbury, London, N5 2ET",020 73541972,10731,51.55141889540217,-0.0921650004855746,4
F83048,Brunswick Medical Centre Uhpc,"39 Brunswick Centre, London, WC1N 1AF",020 78373057,4690,51.52442971970883,-0.1235476587347091,2
F83050,Fortune Green Road Surgery,"80 Fortune Green Road, London, NW6 1DS",020 34355602,8787,51.55465368988683,-0.1966262073520886,4
F83052,Brookfield Park Surgery,"68 Chester Road, London, N19 5BZ",020 72639633,7541,51.564037203352655,-0.1435347255151439,3
F83053,Mildmay Medical Practice,"Mildmay Medical Practice, 2A Green Lanes, London, N16 9NF",020 79231999,9484,51.55247412380851,-0.0857307803750239,4
F83055,West Hampstead Medical Centre,"9 Solent Road, London, NW6 1TP",020 74311588,23824,51.55003985167202,-0.1965778868398193,5
F83056,The Mitchison Road Surgery,"The Surgery, 2 Mitchison Road, London, N1 3NG",020 72266016,5376,51.5450739239712,-0.0878406133326827,2
F83057,Parliament Hill Surgery,"Parliament Hill Surgery, 113-117 Highgate Road, London, NW5 1TR",020 74829280,2608,51.5548628,-0.1452121,1
F83058,Holborn Medical Centre,"The Holborn Medical Ctr., 64-66 Lamb'S Conduit St., Holborn, London, WC1N 3NA",020 30770044,11633,51.52225299395237,-0.1185434518376656,5
F83059,Brondesbury Medical Centre,"Brondesbury Medical Ctr, 279 Kilburn High Road, London, NW6 7JQ",020 76249853,5732,51.5434583954636,-0.2001550432986776,2
F83060,The Northern Medical Centre,"Northern Medical Centre, 580 Holloway Road, London, N7 6LB",020 38173975,3935,51.560765646950294,-0.1232468128170573,1
F83061,Museum Practice,"The Museum Practice, 58 Great Russell Street, London, WC1B 3BA",020 74052739,4916,51.51819546853508,-0.1256372709989614,2
F83063,Killick Street Health Centre,"Killick Street Health Ctr, 75 Killick Street, London, N1 9RH",020 78339939,5798,51.533881764207344,-0.1189585143988892,2
F83064,City Road Medical Centre,"City House Medical Centre, Unit 1-3 Ground Floor, City Hse.,190-196 City Rd, London, EC1V 2QH",020 73368170,6395,51.527831103862106,-0.0908876097261717,3
F83615,Cholmley Gardens Surgery,"1 Cholmley Gardens, Mill Lane, London, NW6 1AE",020 77946256,6844,51.55226119437879,-0.1954226415571909,3
F83623,Keats Group Practice,"The Keats Group Practice, 1B Downshire Hill, London, NW3 1NR",020 34354672,5988,51.55553440126174,-0.1710296918462917,2
F83624,Clerkenwell Medical Practice,"Clerkenwell Med Practice, Finsbury H/C,17 Pine St, London, EC1R 0LP",020 78335906,10709,51.52486428285838,-0.1088442048965025,4
F83632,Queens Crescent Practice,"76 Queens Crescent, London, NW5 4EB",020 74856104,4237,51.5495977,-0.1521973999999999,2
F83633,Daleham Gardens Health Centre,"The Surgery, 5 Daleham Gardens, London, NW3 5BY",020 31120800,2340,51.54795197215349,-0.1743770278826468,1
F83635,Kings Cross Surgery,"The Bloomsbury Building, 4 St Pancras Way, London, NW1 0PE",020 72789074,2384,51.53592466909441,-0.1317143497932357,1
F83652,Amwell Group Practice,"The Amwell Practice, 4 Naoroji Street, Islington, London, WC1X 0GB",020 78372020,2811,51.52804346101206,-0.1108173173121177,1
F83658,Belsize Priory Medical Practice (Group),"Belsize Priory Med Pract, 208 Belsize Road, Kilburn, London, NW6 4DX",020 73288200,2646,51.53977346389431,-0.1880143109271263,1
F83660,Highbury Grange Medical Practice,"Highbury Grange Med Pract, 1-5 Highbury Grange, London, N5 2QB",020 72262462,3719,51.55509091325547,-0.0956753909713561,1
F83664,The Village Practice,"The Village Practice, 115 Isledon Road, London, N7 7JJ",020 77006464,11384,51.559677,-0.1100726999999999,4
F83665,Swiss Cottage Surgery,"Swiss Cottage Surgery, 2 Winchester Mews, Swiss Cottage, London, NW3 3NP",020 77222772,6137,51.54270775157556,-0.1725390966592922,3
F83666,Andover Medical Centre,"The Andover Medical Ctr., 270/282 Hornsey Road, London, N7 7QZ",020 72816956,9756,51.56181818768014,-0.1163946440704567,4
F83671,The Beaumont Practice,"The Beaumont Practice, Hornsey Rise Health Ctr., Hornsey Rise, London, N19 3YU",020 72723155,11029,51.571444007628,-0.1250074890680975,4
F83672,St Philips Medical Centre,"St Philips Mc, Tower 3, 2Nd Floor, Clements Inn, London, WC2A 2AZ",020 76115131,8802,51.51374795747447,-0.1152206602807119,4
F83673,The Medical Centre,"The Medical Centre, 140 Holloway Road, London, N7 8DD",020 76078259,6501,51.550930870938274,-0.1097675721578097,3
F83674,The Junction Medical Practice,"The Junction Med Practice, 244 Tufnell Park Road, London, N19 5EW",020 72729105,10839,51.55717737714917,-0.1365724293171575,4
F83678,Dr Segarajasinghe,"Finsbury Health Centre, Pine Street, London, EC1R 0JH",020 77135256,17588,51.52508649132586,-0.1092836173091592,5
F83680,Sobell Medical Centre,"Sobell Medical Centre, 272 Holloway Road, London, N7 6NE",020 76093050,9929,51.55413807713528,-0.1137150433382755,4
F83681,Partnership Primary Care Centre,"Partnership Pcc, 331 Camden Road, London, N7 0SL",020 38174431,6533,51.55389999999999,-0.1225319,3
F83683,Somers Town Medical Centre,"Somers Town Medical Ctr., 77-83 Chalton Street, London, NW1 1HY",020 73876855,8090,51.52991621082301,-0.1306068855879302,3
F83686,Stroud Green Medical Centre,"181 Stroud Green Road, London, N4 3PZ",020 72724323,8751,51.57005890422384,-0.1143285260532757,4
F84003,Lower Clapton Group Practice,"Lower Clapton Health Ctr., 36 Lower Clapton Road, Clapton, London, E5 0PQ",020 89867111,5248,51.550990422680655,-0.0510222822029588,2
F84004,Market Street Health Group,"Market Street Health Grp, 52 Market Street, East Ham, London, E6 2RA",020 85482200,7680,51.53099424682024,0.0574891925891379,3
F84006,The Shrewsbury Centre,"Shrewsbury Road Hlth Ctr, Shrewsbury Road, Forest Gate, London, E7 8QP",020 85865111,5082,51.5394943,0.0439051932938711,2
F84008,Barton House Group Practice,"Barton House Health Ctr, 233 Albion Road, Stoke Newington, London, N16 9JT",020 72495511,4512,51.560456959439094,-0.0839240084626122,2
F84009,Stratford Village Surgery,"Stratford Village Surgery, 50C Romford Road, Stratford, London, E15 4BZ",020 85344133,6407,51.54208678815753,0.0061922794196936,3
F84010,St. Bartholomews Surgery,"St.Bartholomew'S Surgery, 292A Barking Road, East Ham, London, E6 3BA",020 84720669,4247,51.532481264042595,0.0517642939694641,2
F84012,Albion Health Centre,"Albion Health Centre, 333 Whitechapel Road, Whitechapel, London, E1 1BU",020 74569820,6594,51.51996206367917,-0.0572594278958556,3
F84013,Stamford Hill Group Practice,"Stamford Hill Group Pract, 2 Egerton Road, Stamford Hill, London, N16 6UA",020 88001000,5228,51.573975869854536,-0.0714929551848389,2
F84014,Upton Lane Medical Centre,"Upton Lane Medical Centre, 75-77 Upton Lane, Forest Gate, London, E7 9PB",020 84716912,4496,51.54327262335407,0.025873255890721,2
F84015,Kingsmead Healthcare,"Kingsmead Healthcare, 4 Kingsmead Way, London, E9 5QG",020 89851930,1025,51.5516345,-0.034524900000000004,1
F84016,The Mission Practice,"Mission Medical Practice, 208 Cambridge Heath Road, Bethnal Green, London, E2 9LS",020 89837300,3037,51.5313733024055,-0.0564826915369917,1
F84017,Star Lane Medical Centre,"Star Lane Medical Centre, 121 Star Lane, Canning Town, London, E16 4QH",020 74764862,2999,51.51987281095389,0.0106742030075555,1
F84018,The Nightingale Practice,"Nightingale Practice, 10 Kenninghall Road, Clapton, London, E5 8BY",020 89858388,2831,51.558150943530244,-0.0607742859639001,1
F84021,London Fields Medical Centre,"London Fields Medical Ctr, 38-44 Broadway Market, Hackney, London, E8 4QJ",020 79238100,4788,51.536554757867,-0.0615936071326299,2
F84022,Stratford Health Centre,"Stratford Health Centre, 121-123 The Grove, Stratford, London, E15 1EN",020 85553936,7320,51.544767153809396,0.0047545501831896,3
F84025,Gough Walk Practice,"Newby Plce Hlth Wellbeing, 21 Newby Place, London, E14 0EY",020 75154701,66154,51.51022495144658,-0.0124188040463848,5
F84030,Ruston Street Clinic,"Ruston Street Clinic, Ruston Street, Bow, London, E3 2LR",020 89801652,15269,51.53618598399906,-0.0274171329600839,5
F84031,Jubilee Street Practice,"Jubilee Street Practice, 368-374 Commercial Road, London, E1 0LS",020 77808000,25138,51.51359544130434,-0.050552174961878,5
F84033,Somerford Grove Practice,"Somerford Grove Hlth.Ctr., Somerford Grove, Stoke Newington, London, N16 7UA",020 76834888,6193,51.553797205685775,-0.0726206325901741,3
F84034,St. Stephens Health Centre,"St.Stephens Health Centre, Bow Community Hall, William Place, London, E3 5ED",020 89801760,54128,51.53217322994405,-0.0310059897115135,5
F84035,Richmond Road Medical Centre,"Richmond Rd Medical Ctre, 136 Richmond Road, London, E8 3HN",020 72542298,9412,51.5431205,-0.0655636999999999,4
F84036,The Cedar Practice,"Cedar Practice, John Scott Health Centre, Woodberry Down, Green Lanes, London, N4 2NU",020 76901151,2487,51.56853052369439,-0.0937574519999223,1
F84038,Beechwood Medical Centre,"Beechwood Medical Centre, 86A Dalston Lane, London, E8 3AH",020 72542855,10347,51.546084295838654,-0.0705957211702622,4
F84039,Goodman'S Field Health Centre,"11 Stable Walk, London, E1 8ZF",020 77022036,7492,51.514012292700464,-0.0625836809032981,3
F84041,Southgate Road Medical Centre,"Southgate Rd Medical Ctr, 101-103 Southgate Road, London, N1 3JS",020 77042233,5922,51.54160882444708,-0.0851672234858874,2
F84044,Harley Grove Medical Ctr.,"Harley Grove Medical Ctr., 15 Harley Grove, London, E3 2AT",020 89837479,5524,51.528522339656284,-0.0288606926074865,2
F84047,Custom House Surgery,"Custom House Surgery, 16 Freemasons Road, Custom House, Canning Town,London, E16 3NA",020 74762255,6598,51.51124935523545,0.0260500177898586,3
F84050,Boleyn Medical Centre,"Boleyn Medical Centre, 152 Barking Road, East Ham, London, E6 3BD",020 84758500,6356,51.5313615,0.0452445,3
F84051,Strouts Place Medical Centre,"Med Ctr, 3 Strouts Place, Pelter Street, London, E2 7QU",020 77398859,6190,51.529479540891174,-0.0741524587965519,3
F84052,Essex Lodge,"Essex Lodge, 94 Greengate Street, Plaistow, London, E13 0AS",020 84724888,6441,51.52862937398693,0.0259828577018601,3
F84053,Greengate Medical Centre,"Greengate Medical Centre, 497 Barking Road, Plaistow, London, E13 8PS",020 84717160,10027,51.52537850668325,0.0280816780041045,4
F84054,The Limehouse Practice,"Gill Street Health Centre, 11 Gill Street, Poplar, London, E14 8HQ",020 75152211,7260,51.51122172893906,-0.0287811446521238,3
F84055,The Grove Road Surgery,"3 Ivanhoe House, 130 Grove Road, Bow, London, E3 5TW",020 89801767,9095,51.529785302441034,-0.0388745459206554,4
F84060,Athena Medical Centre,"Athena Medical Centre, 21 Atherden Road, Clapton, London, E5 0QP",020 89856675,2934,51.55494328278201,-0.0532566184354348,1
F84062,The Chrisp Street Hth Ctr,"The Chrisp Street Hth Ctr, 100 Chrisp Street, London, E14 6PG",020 75154860,4631,51.51421087300759,-0.0143359985103444,2
F84063,The Dalston Practice,"1B Madinah Road, London, E8 1PG",020 72750077,7508,51.54804565,-0.06686215,3
F84069,Well Street Surgery,"28 Shore Road, Hackney, London, E9 7TA",020 89852050,5892,51.53936173014095,-0.0528689317727527,2
F84070,Lathom Road Medical Centre,"Lathom Road Med Ctr, 2A Lathom Road, East Ham, London, E6 2DU",020 85485640,5862,51.53771458726098,0.0533369008383835,2
F84072,De Beauvoir Surgery,"30 Hertford Road, London, N1 5QT",020 79233684,4065,51.538457785099965,-0.0782148681979179,2
F84074,The Graham Practice,"The Graham Practice, Wordsworth Health Centre, 19 Wordsworth Avenue, London, E12 6SU",020 85485960,5812,51.54155101709269,0.0487933680329581,2
F84077,Newham Vicarage Practice,"Vicarage Lane Health Ctr, 10 Vicarage Lane, Stratford, London, E15 4ES",020 85362266,5331,51.54149158579622,0.0100073793257139,2
F84079,The Wapping Group Practice,"The Wapping Health Centre, 22 Wapping Lane, London, E1W 2RL",020 74819376,1995,51.50532762914622,-0.0582212644764312,1
F84080,Fountayne Road Health Centre,"Fountayne Road Health Ctr, 1A Fountayne Road, London, N16 7EA",020 39280777,3806,51.56442023163135,-0.0651448332809361,1
F84081,The Spitalfields Practice,"The Spitalfields Practice, 20 Old Montague Street, London, E1 5PB",020 72477070,2821,51.5173977,-0.06962360000000001,1
F84083,Bethnal Green Health Ctr.,"Bethnal Green Health Ctr., 60 Florida Street, Bethnal Green, London, E2 6LL",020 77396677,2895,51.526915618105534,-0.0642556078714373,1
F84086,The Forest Practice,"Lord Lister Health Centre, 121 Woodgrange Road, Forest Gate, London, E7 0EP",020 82507510,1962,51.55097109567222,0.0248317317533722,1
F84087,Harford Health Centre,"Harford Health Centre, 115 Harford Street, London, E1 4FG",020 77901059,2515,51.51834958756532,-0.0383079805644612,1
F84088,Plashet Road Medical Centre,"152 Plashet Road, Plaistow, London, E13 0QT",020 84720473,2726,51.537490922274415,0.0330229487067894,1
F84092,Glen Road Medical Centre,"Glen Road Medical Centre, 1-9 Glen Road, Plaistow, London, E13 8RU",020 74763434,3190,51.522414462558714,0.0318368090679115,1
F84093,Tollgate Medical Centre,"Tollgate Health Centre, 220 Tollgate Road, London, E6 5JS",020 74739399,11295,51.51557349931826,0.0563617730706905,4
F84096,The Lawson Practice,"The Lawson Practice, St.Leonards,85 Nuttall St, London, N1 5HZ",020 35386044,7897,51.533769603465814,-0.0792874768762725,3
F84097,Claremont Clinic,"Claremont Clinic, 459-463 Romford Road, Forest Gate, London, E7 8AB",020 85220222,9843,51.54763705,0.0347571999999999,4
F84105,The Lea Surgery,"The Lea Surgery, Alfred Health Centre, 186 Homerton High Street, London, E9 6AG",020 89863106,11600,51.548250224246175,-0.0432935490194919,5
F84111,Abbey Road Medical Practice,"Abbey Road Health Centre, 28A Abbey Road, Stratford, London, E15 3LT",020 85342515,10845,51.53476310823506,0.0059217555582934,4
F84114,City Square Medical Group,"Tower Medical Centre, 129 Cannon Street Road, Whitechapel, London, E1 2LX",020 74884240,3542,51.51310439271651,-0.0616848882757711,1
F84115,The Statham Grove Surgery,"The Statham Grove Surgery, Statham Grove, Stoke Newington, London, N16 9DP",020 72544327,9563,51.55715410000001,-0.0892898,4
F84117,Queensbridge Group Practice,"Queensbridge Group Pract., 24 Holly Street, Hackney, London, E8 3XP",020 72541101,13791,51.54146772740557,-0.0714832075696738,5
F84118,Merchant Street Practice,"Wellington Wy Hlth Centre, 1A Wellington Way, London, E3 4NE",020 89803676,16430,51.52567447182138,-0.0243473193536534,5
F84119,The Heron Practice,"The Heron Practice, John Scott Health Centre, Woodberry Down, Green Lanes, London, N4 2NU",020 76901172,9373,51.56853052369439,-0.0937574519999223,4
F84121,E12 Health,"E12 Health Centre, The Centre, 30 Church Rd, Manor Park, London, E12 6AQ",020 85537440,2034,51.54778475419264,0.0538331184707544,1
F84122,Xx Place Health Centre,"Xx Place Health Centre, Bancroft Road, London, E1 4DG",020 71672828,4231,51.52468532832411,-0.0426257065969284,2
F84123,Suttons Wharf Health Centre,"Suttons Wharf Health Ctr, 26 Palmers Road, London, E2 0FA",020 89803023,2971,51.52803426480725,-0.0481910206647643,1
F84124,The Project Surgery,"Community Surgery, 10 Lettsom Walk, Plaistow, London, E13 0LN",020 84725234,4529,51.53227338288172,0.020635780216911,2
F84601,Elsdale Street Surgery,"Elsdale Street Surgery, 28 Elsdale Street, Hackney, London, E9 6QY",020 85252980,4062,51.54303138470632,-0.0491213001235355,2
F84619,The Riverside Practice,"Theydon Road Health Ctr, 14 Urban Hive, Theydon Rd, London, E5 9BQ",020 88061928,4566,51.5640199,-0.0520270999999999,2
F84620,The Wick Health Centre,"Kenworthy Road Health Ctr, 10 Kenworthy Road, London, E9 5TD",020 89866341,6331,51.54751866568999,-0.037960816404356,3
F84621,Sandringham Practice,"The Medical Centre, 1A Madinah Road, Hackney, London, E8 1PG",020 72750022,9211,51.54804565,-0.06686215,4
F84632,The Greenhouse Walk-In,"19 Tudor Road, Hackney, London, E9 7SN",020 85104490,11459,51.5385233,-0.0552018,5
F84635,Shoreditch Park Surgery,"Shoreditch Park Surgery, 10 Rushton Street, London, N1 5DR",020 77398525,7766,51.53346315,-0.0868766999999999,3
F84636,The Surgery (Barretts Grove),"6 Barretts Grove, Stoke Newington, London, N16 8AR",020 72541661,13871,51.55219952531535,-0.0782848617594326,5
F84640,The Neaman Practice,"The Neaman Practice, 15 Half Moon Court, London, EC1A 7HF",020 76009740,8133,51.518982241822,-0.0982197825108778,3
F84641,Birchdale Road Medical Centre,"Birchdale Road Med Centre, 2 Birchdale Road, Forest Gate, London, E7 8AR",020 84721600,3360,51.54675853011053,0.038426414616444,1
F84642,Lucas Avenue Practice,"1A Lucas Avenue, Plaistow, London, E13 0QP",020 84717239,7356,51.536253631594754,0.0307327672401296,3
F84647,Roserton Street Surgery,"Docklands Medical Centre, 100 Spindrift Avenue, Isle Of Dogs, London, E14 9WU",020 79874231,7933,51.49830495224325,-0.0100245105768773,3
F84656,Docklands Medical Centre,"Docklands Medical Centre, 100 Spindrift Avenue, Isle Of Dogs, London, E14 9WU",020 75371444,12784,51.4911464328952,-0.0211307198045099,5
F84657,Cumberland Medical Centre,"179 Cumberland Road, London, E13 8LS",020 74761029,4723,51.51889882038482,0.025883734898089004,2
F84658,Sangam Practice,"1 Toronto Avenue, London, E12 5JF",020 89118378,12227,51.5492323054877,0.0487057530903793,5
F84660,Dr Cm Patel'S Surgery,"2 Jephson Road, Forest Gate, London, E7 8LZ",020 84706429,14132,51.54096611219404,0.035384268319231,5
F84666,The Ruiz Medical Practice,"St.Lukes Health Centre, 2 St.Lukes Square, Canning Town, London, E16 1HT",020 73666440,6871,51.51192710959899,0.0135958083905343,3
F84668,The Clapton Surgery,"Theydon Road Health Ctr, 14 Urban Hive, Theydon Rd, London, E5 9BQ",020 88067735,9526,51.5640199,-0.0520270999999999,4
F84669,Newham Medical Centre,"Newham Medical Centre, 576 Green Street, Plaistow, London, E13 9DA",0844 4996992,5992,51.531438416908074,0.0371940504376185,3
F84670,Westbury Road Medical Practice,"Westbury Road Med.Pract., 45 Westbury Road, Forest Gate, London, E7 8BU",020 84724123,11682,51.54578625279978,0.0301908859864749,5
F84672,First 4 Health Group - E7 Health,"Lord Lister Health Centre, 121 Woodgrange Road, Forest Gate, London, E7 0EP",020 85341026,7077,51.55097109567222,0.0248317317533722,3
F84676,The Stroudley Wlk Hth Ctr,"Wellington Way Hc, 1A Wellington Way, London, E3 4NE",020 89814742,6737,51.52567447182138,-0.0243473193536534,3
F84677,East End Medical Centre,"East End Medical Centre, 61 Plashet Road, Plaistow, London, E13 0QA",020 84708186,9817,51.53731101490346,0.0252281483623763,4
F84681,Balaam Street Practice,"Balaam St Health Centre, 113 Balaam Street, Plaistow, London, E13 8AF",020 84721238,10778,51.5272234,0.0237135799999999,4
F84685,The Elm Practice,"Elm Practice, 1A Fountayne Road, London, N16 7EA",020 76834839,46347,51.56442023163135,-0.0651448332809361,5
F84686,The Surgery (Cranwich Road),"The Surgery, 62 Cranwich Road, London, N16 5JF",020 88022002,5505,51.57365679039607,-0.0816516423473482,2
F84692,The Hoxton Surgery,"Hoxton Surgery, 12 Rushton Street, Hoxton, London, N1 5DR",020 34870200,4009,51.53346315,-0.0868766999999999,1
F84694,The Surgery (Brooke Road),"Brooke Road Surgery, 40-42 Brooke Road, Stoke Newington, London, N16 7LR",020 72545652,7320,51.5600523160592,-0.0707547783028091,3
F84696,Tredegar Practice,"35 St.Stephens Road, Bow, London, E3 5JD",020 89801822,6749,51.5313129705715,-0.0318306063189417,3
F84698,Aberfeldy Practice,"2A Ettrick Street, Poplar, London, E14 0PU",020 75155622,9350,51.5143573,-0.0052836,4
F84710,Island Health,"Island Health, 145 East Ferry Road, Isle Of Dogs, London, E14 3BQ",020 73631111,4285,51.495296998155716,-0.0132938878276871,2
F84711,Rosewood Practice,"Rosewood Practice, 1A Fountayne Road, London, N16 7EA",020 76834847,5821,51.56442023163135,-0.0651448332809361,2
F84714,St. Paul'S Way Medical Ctr,"First Floor, 11 Selsey Street, London, E14 7LJ",020 75380833,2971,51.51786237985586,-0.0244829938080497,1
F84716,The Allerton Road Surgery,"34A Allerton Road, Stoke Newington, London, N16 5UF",020 88022882,3490,51.56572395449951,-0.0903830888981056,1
F84717,Royal Docks Medical Practice,"Royal Docks Medical Ctre, 21 East Ham Manor Way, Beckton, London, E6 5NA",020 75114466,3191,51.51006293644925,0.062089971772465,1
F84718,The Blithehale Med.Ctr.,"Blithehale Health Centre, 10-22 Dunbridge Street, London, E2 6JA",020 77395497,6577,51.523774739951975,-0.0651960815971299,3
F84719,Latimer Health Centre,"Latimer Health Centre, 4 Homerton Terrace, Off Morning Lane,Hackney, London, E9 6RT",020 89852249,7950,51.546589792450845,-0.0495027301877923,3
F84720,Healy Medical Centre,"Healy Medical Centre, 200 Upper Clapton Road, London, E5 9DH",020 88061550,17500,51.56638834920216,-0.0597917428103416,5
F84724,Woodgrange Medical Practice,"Woodgrange Med Practice, 40 Woodgrange Road, Forest Gate, London, E7 0QH",020 82213100,1816,51.54855977689858,0.0252143038587269,1
F84729,The Manor Park Practice,"The Surgery, 778 Romford Road, Manor Park, London, E12 5JG",020 84780533,14673,51.55339807078314,0.0558534298405179,5
F84730,The Vicarage Lane Surgery,"Vicarage Lane Health Ctr, 10 Vicarage Lane, Stratford, London, E15 4ES",020 85362244,11905,51.54149158579622,0.0100073793257139,5
F84731,St. Katherine'S Dock Practice,"12-14 Nightingale House, 50 Thomas More Street, London, E1W 1UA",020 74883653,7392,51.5071804,-0.0682198,3
F84733,Health E1,"9 - 11 Brick Lane, London, E1 6PU",020 72470090,8416,51.51837165451547,-0.0715380187087058,4
F84735,The Azad Practice,"Boleyn Medical Centre, 152 Barking Road, East Ham, London, E6 3BD",020 84758550,3577,51.5313615,0.0452445,1
F84739,E12 Medical Centre,"243 High Street North, Manor Park, London, E12 6SJ",020 84702500,2629,51.54039932290733,0.0504164359063199,1
F84740,Newham Transitional Practice,"Newham Transitional Prac, 30 Church Road,The Centre, Manor Park, London, E12 6AQ",020 85537460,7953,51.54778475419264,0.0538331184707544,3
F84741,Dr T Krishnamurthy,"East Ham Memorial Hpl, Shrewsbury Road, Forest Gate, London, E7 8QR",020 85866555,6922,51.53958758364311,0.0453595730479787,3
F84742,The Summitt Practice,"East Ham Memorial Bldg, Shrewsbury Road, Forest Gate, London, E7 8QR",020 85522299,10617,51.53958758364311,0.0453595730479787,4
F84747,The Barkantine Practice,"Barkantine Centre, 121 Westferry Road, London, E14 8JH",020 75104000,4918,51.50018981808134,-0.0257042513455858,2
F84749,Carpenters Practice,"236-252 High Street, Stratford, London, E15 2JA",020 85348057,8638,51.5372425,-0.0032347,4
F84750,Community Dermatology Clinic,"Appleby Centre, 63 Appleby Road, Canning Town, London, E16 1LQ",020 74457000,14891,51.51099124034109,0.0162495129129041,5
F85002,Medicus Health Partners,"Forest Primary Care Ctr, 308A Hertford Road, Edmonton, London, N9 7HD",020 83444550,8266,51.633471510280685,-0.0529555842040717,3
F85004,Eagle House Surgery,"Eagle House Surgery, 291 High Street, Ponders End, Enfield, Middlesex, EN3 4DN",020 88058611,6568,51.64790193210529,-0.0461862627353915,3
F85007,Lawrence House Surgery,"Lawrence House Surgery, 107 Philip Lane, Tottenham, London, N15 4JR",020 88016640,2577,51.589102644404704,-0.0787056801699898,1
F85008,Staunton Group Practice,"Morum House Medical Ctr, 3-5 Bounds Green Road, Wood Green, London, N22 8HE",020 38057300,6640,51.59891788444306,-0.1121257969774774,3
F85010,Keats Surgery,"Keats Surgery, 290A Church Street, Edmonton, London, N9 9HJ",020 88072051,7117,51.62886483113199,-0.0769105301762128,3
F85013,Tynemouth Medical Practice,"Tynemouth Med Practice, Tynemouth Road, Tottenham, London, N15 4RH",020 88084904,4770,51.586252585832774,-0.068331478853347,2
F85014,Highgate Group Practice,"Highgate Group Practice, 44 North Hill, Highgate, London, N6 4QA",020 83406628,4776,51.57787749861677,-0.1524932348471532,2
F85016,Cockfosters Medical Ctre,"Cockfosters Medical Ctre, Heddon Court Avenue, Cockfosters, Barnet, Hertfordshire, EN4 9NB",020 84417008,3960,51.64844531147767,-0.1487759381792247,1
F85017,Charlton House Medical Centre,"Charlton House Med Ctr, 581 High Road, Tottenham, London, N17 6SB",020 88082837,4179,51.59544516309478,-0.0690812801968361,2
F85019,Morris House Group Practice,"239 Lordship Lane, Tottenham, London, N17 6AA",020 32244050,5744,51.597763151892,-0.082050988002961,2
F85020,The Woodberry Practice,"The Woodberry Practice, 1 Woodberry Avenue, Winchmore Hill, London, N21 3LE",020 88862751,4154,51.627250705995166,-0.1003849671244744,2
F85023,The Ordnance Unity Centre For Health,"645 Hertford Road, Enfield, Middlesex, EN3 6ND",01992 761185,3584,51.67276085215042,-0.0389270506803255,1
F85025,White Lodge Medical Practice,"105-109 Chase Side, Enfield, EN2 6NL",020 83634156,2418,51.6543325,-0.0808805,1
F85028,Bruce Grove Primary Health Care Ctr,"The Surgery, 461-463 High Road, Tottenham, London, N17 6QB",020 88084710,5140,51.59200199659855,-0.0701665185679529,2
F85029,Abernethy House Surgery,"Abernethy House Surgery, 70 Silver Street, Enfield, Middlesex, EN1 3EB",020 83704940,3345,51.65454325,-0.081131525,1
F85030,Somerset Gardens Family Health Centre,"Somerset Gdns Fam Hth Ctr, 4 Creighton Road, Tottenham, London, N17 8NW",020 82756410,2994,51.60533816802093,-0.0734713414326079,1
F85031,Westbury Medical Centre,"The Surgery, 205 Westbury Avenue, Wood Green, London, N22 6RX",020 88883021,4620,51.5980098,-0.0934014,2
F85032,Southgate,"The Surgery, 270 Chase Side, Southgate, London, N14 4PR",020 84409301,2609,51.6403025,-0.14265970000000006,1
F85033,Winchmore Hill Practice,"808 Green Lanes, Winchmore Hill, London, N21 2SA",020 83505000,3401,51.6332477,-0.0937945,1
F85034,Arcadian Gardens Surgery,"1 Arcadian Gardens, Wood Green, London, N22 5AB",020 88884142,5160,51.60672683324012,-0.1107733097541682,2
F85035,Highlands Practice,"Highlands Health Centre, 3 Florey Square, Winchmore Hill, London, N21 1UJ",020 83609044,5763,51.646336919070905,-0.1106881513318848,2
F85039,Rainbow Practice,"Evergreen Primary Cre Ctr, 1 Smythe Close, Edmonton, N9 0TW",020 88878329,3437,51.6237762,-0.0603112,1
F85043,Boundary Court Surgery,"The Surg, Evergreen Pcc, 1 Smythe Close, Edmonton, London, N9 0TW",020 88879938,17191,51.6237762,-0.0603112,5
F85044,The Bounces Road Surgery,"Forest Primary Care Ctr, 308A Hertford Road, Edmonton, London, N9 7HD",020 83448077,6522,51.633471510280685,-0.0529555842040717,3
F85046,Hornsey Park Surgery,"The Surgery, 114 Turnpike Lane, Hornsey, N8 0PH",020 88882227,2238,51.58927467662926,-0.1092309576410669,1
F85052,Spur Road Surgery,"The Surgery, 1 Spur Road, Tottenham, London, N15 4AA",020 88009837,3780,51.586597165977295,-0.0866209116995061,1
F85058,Nightingale House Surgery,"Nightingale House Surgery, 1 Nightingale Road, Edmonton, London, N9 8AJ",020 88059997,13870,51.632957960056935,-0.0459877070284227,5
F85060,Havergal Surgery,"Havergal Surgery, 9-10 Havergal Villas, Green Lanes, Tottenham, N15 3DY",020 88886662,9465,51.589194189280214,-0.102016229830371,4
F85061,Christchurch Hall Surgery,"Christchurch Hall Surgery, 20 Edison Road, London, N8 8AE",020 83402877,6781,51.577920991293276,-0.1257223381958608,3
F85063,The Muswell Hill Practice,"The Muswell Hill Practice, 1 Dukes Avenue, Muswell Hill, London, N10 2PS",020 83653303,8225,51.591790918215295,-0.1416494078439502,3
